stop_id,stop_code,stop_name,stop_desc,stop_lat,stop_lon,zone_id,stop_url,location_type,parent_station,stop_timezone,wheelchair_boarding,level_id,platform_code
"MOBIITI:StopPlace:70923",,"Rue des Ecoles",,45.371681,-0.571278,"",,1,,,2,,
"MOBIITI:StopPlace:69935",,"Bavolier",,44.766953,-0.478254,"",,1,,,2,,
"MOBIITI:StopPlace:70921",,"La Croix",,45.156040,-0.647163,"",,1,,,2,,
"MOBIITI:StopPlace:69936",,"Fontbonne",,44.772728,-0.487419,"",,1,,,2,,
"MOBIITI:StopPlace:70922",,"Gare TER",,45.438786,-0.441508,"",,1,,,2,,
"MOBIITI:StopPlace:70927",,"Bel Ormeau",,45.196308,-0.593901,"",,1,,,2,,
"MOBIITI:StopPlace:70928",,"Rue R. Bourda",,45.290291,-0.607340,"",,1,,,2,,
"MOBIITI:StopPlace:70926",,"Champ de Foire",,45.445343,-0.438693,"",,1,,,2,,
"MOBIITI:StopPlace:70929",,"Les Michenauds",,45.281284,-0.600121,"",,1,,,2,,
"MOBIITI:StopPlace:69930",,"Chem. de Raullet",,44.780022,-0.257445,"",,1,,,2,,
"MOBIITI:StopPlace:69931",,"Le Carpe",,44.763237,-0.403110,"",,1,,,2,,
"MOBIITI:StopPlace:69932",,"Eglise",,44.765240,-0.488814,"",,1,,,2,,
"MOBIITI:StopPlace:69933",,"La Lande",,44.767960,-0.467281,"",,1,,,2,,
"MOBIITI:StopPlace:70930",,"Les Renauds",,45.274506,-0.594807,"",,1,,,2,,
"MOBIITI:StopPlace:70931",,"Bourg",,45.267216,-0.560331,"",,1,,,2,,
"MOBIITI:StopPlace:70934",,"Bourg",,45.018951,-0.324467,"",,1,,,2,,
"MOBIITI:StopPlace:69924",,"Dom. du Bois de Chartres",,44.748158,-0.277890,"",,1,,,2,,
"MOBIITI:StopPlace:70935",,"La Gruppe",,45.013329,-0.416217,"",,1,,,2,,
"MOBIITI:StopPlace:69925",,"Pl. du 11 Novembre",,44.734562,-0.264827,"",,1,,,2,,
"MOBIITI:StopPlace:69926",,"Berthoumieu",,44.739059,-0.270433,"",,1,,,2,,
"MOBIITI:StopPlace:69927",,"Gendarmerie",,44.772842,-0.345739,"",,1,,,2,,
"MOBIITI:StopPlace:69928",,"Audigey",,44.776806,-0.258467,"",,1,,,2,,
"MOBIITI:StopPlace:69929",,"Pont Traoucat",,44.785316,-0.255116,"",,1,,,2,,
"MOBIITI:StopPlace:70936",,"Gaudin",,45.020100,-0.337051,"",,1,,,2,,
"MOBIITI:StopPlace:69920",,"Riboutet",,44.771736,-0.335878,"",,1,,,2,,
"MOBIITI:StopPlace:69921",,"La Verrerie",,44.766953,-0.364939,"",,1,,,2,,
"MOBIITI:StopPlace:69922",,"Bourg",,44.771507,-0.307405,"",,1,,,2,,
"MOBIITI:StopPlace:70941",,"Pac de Sol",,45.016052,-0.343428,"",,1,,,2,,
"MOBIITI:StopPlace:70902",,"Bourg",,45.108334,-0.585135,"",,1,,,2,,
"MOBIITI:StopPlace:69957",,"Croix d'Ardit","",44.805470,-0.497674,"",,1,,,2,,
"MOBIITI:StopPlace:69959",,"Moulin Vergne",,44.816807,-0.473789,"",,1,,,2,,
"MOBIITI:StopPlace:45509",,"Grand-Lebrun",,44.850807,-0.606516,"BORDEAUX_METROPOLE:TariffZone:33063",,1,,,0,,
"MOBIITI:StopPlace:45508",,"Quinconces","",44.844940,-0.573025,"BORDEAUX_METROPOLE:TariffZone:33063",,1,,,0,,
"MOBIITI:StopPlace:69950",,"Beaugey",,44.803352,-0.480474,"",,1,,,2,,
"MOBIITI:StopPlace:70908",,"Bas",,44.877167,-0.534459,"",,1,,,2,,
"MOBIITI:StopPlace:69951",,"Moulin de Sonney",,44.796974,-0.478195,"",,1,,,2,,
"MOBIITI:StopPlace:69952",,"Bel Air",,44.820316,-0.468391,"",,1,,,2,,
"MOBIITI:StopPlace:69953",,"Mairie",,44.813274,-0.474726,"",,1,,,2,,
"MOBIITI:StopPlace:69955",,"Lestonnac",,44.822193,-0.460297,"",,1,,,2,,
"MOBIITI:StopPlace:69945",,"Piron",,44.783623,-0.416709,"",,1,,,2,,
"MOBIITI:StopPlace:69946",,"La Croix Blanche",,44.780312,-0.362686,"",,1,,,2,,
"MOBIITI:StopPlace:70913",,"ZA Parc d'Aquitaine",,45.010414,-0.434108,"",,1,,,2,,
"MOBIITI:StopPlace:70910",,"Ecole",,45.067680,-0.384544,"",,1,,,2,,
"MOBIITI:StopPlace:69948",,"Les Merles",,44.783226,-0.396091,"",,1,,,2,,
"MOBIITI:StopPlace:70911",,"ZAC La Garosse",,45.010967,-0.423564,"",,1,,,2,,
"MOBIITI:StopPlace:70916",,"Bourg",,45.146152,-0.643765,"",,1,,,2,,
"MOBIITI:StopPlace:69949",,"Balaude",,44.781624,-0.385320,"",,1,,,2,,
"MOBIITI:StopPlace:70917",,"La Riade",,45.182072,-0.641520,"",,1,,,2,,
"MOBIITI:StopPlace:70914",,"La Marquette",,45.040043,-0.409647,"",,1,,,2,,
"MOBIITI:StopPlace:70915",,"Gare TER",,45.105251,-0.382681,"",,1,,,2,,
"MOBIITI:StopPlace:70918",,"Hopital",,45.135040,-0.658572,"",,1,,,2,,
"MOBIITI:StopPlace:70919",,"Guillot",,45.189884,-0.645563,"",,1,,,2,,
"MOBIITI:StopPlace:69940",,"Rd Pt de la Barade",,44.768970,-0.457548,"",,1,,,2,,
"MOBIITI:StopPlace:69941",,"Centre Commercial","",44.816612,-0.528018,"BORDEAUX_METROPOLE:TariffZone:33065",,1,,,2,,
"MOBIITI:StopPlace:69942",,"Chalon",,44.764690,-0.384232,"",,1,,,2,,
"MOBIITI:StopPlace:69943",,"Les Mignons",,44.762993,-0.394310,"",,1,,,2,,
"MOBIITI:StopPlace:69944",,"La Tuiliere",,44.774242,-0.301959,"",,1,,,2,,
"MOBIITI:StopPlace:70920",,"Les Ecoles",,45.162651,-0.643717,"",,1,,,2,,
"MOBIITI:StopPlace:70967",,"La Chaise",,44.879028,-0.426683,"",,1,,,2,,
"MOBIITI:StopPlace:69978",,"Mairie",,44.750229,-0.435421,"",,1,,,2,,
"MOBIITI:StopPlace:70968",,"La Cle des Champs",,44.878971,-0.457842,"",,1,,,2,,
"MOBIITI:StopPlace:69979",,"Meynac",,44.759422,-0.452580,"",,1,,,2,,
"MOBIITI:StopPlace:70965",,"Cournau",,44.879486,-0.435956,"",,1,,,2,,
"MOBIITI:StopPlace:70969",,"Av. La Chapelle",,44.878052,-0.451227,"",,1,,,2,,
"MOBIITI:StopPlace:69970",,"Caserne des Pompiers",,44.839382,-0.559013,"",,1,,,2,,
"MOBIITI:StopPlace:69971",,"Bouchon de Robert",,44.809559,-0.478729,"",,1,,,2,,
"MOBIITI:StopPlace:69972",,"Coll. N. Mandela",,44.838879,-0.533413,"",,1,,,2,,
"MOBIITI:StopPlace:69973",,"Pont de Bouliac",,44.821110,-0.513348,"BORDEAUX_METROPOLE:TariffZone:33065",,1,,,2,,
"MOBIITI:StopPlace:69975",,"Le Pin Franc",,44.770763,-0.457363,"",,1,,,2,,
"MOBIITI:StopPlace:69976",,"Baragne",,44.749065,-0.451820,"",,1,,,2,,
"MOBIITI:StopPlace:69977",,"Damluc",,44.765388,-0.452113,"",,1,,,2,,
"MOBIITI:StopPlace:70971",,"La Lagune",,44.982613,-0.408094,"",,1,,,2,,
"MOBIITI:StopPlace:70972",,"Pont de Loze",,44.992458,-0.431446,"",,1,,,2,,
"MOBIITI:StopPlace:69967",,"Casaubaque",,44.791523,-0.425072,"",,1,,,2,,
"MOBIITI:StopPlace:69968",,"Bourg",,44.796917,-0.427798,"",,1,,,2,,
"MOBIITI:StopPlace:45530",,"Gare Routière","",44.896809,-0.721860,"BORDEAUX_METROPOLE:TariffZone:33449",,1,,,0,,
"MOBIITI:StopPlace:69960",,"Le Casse",,44.783283,-0.400420,"",,1,,,2,,
"MOBIITI:StopPlace:69961",,"Camping",,44.783157,-0.369893,"",,1,,,2,,
"MOBIITI:StopPlace:69962",,"Grand Arnaud","",44.808121,-0.493271,"",,1,,,2,,
"MOBIITI:StopPlace:69964",,"Le Moulin",,44.776203,-0.351452,"",,1,,,2,,
"MOBIITI:StopPlace:69965",,"Rd Pt de Cabirac",,44.819061,-0.473081,"",,1,,,2,,
"MOBIITI:StopPlace:69966",,"Escorgeboeuf",,44.804585,-0.439952,"",,1,,,2,,
"MOBIITI:StopPlace:70981",,"Le Gabaron",,44.954594,-0.345523,"",,1,,,2,,
"MOBIITI:StopPlace:70501",,"Bourg",,45.027195,-0.798164,"",,1,,,2,,
"MOBIITI:StopPlace:70986",,"Ecoles",,44.937168,-0.314812,"",,1,,,2,,
"MOBIITI:StopPlace:70502",,"Le Bois de Luget 1",,44.932762,-0.698057,"",,1,,,2,,
"MOBIITI:StopPlace:70984",,"Bourg","",44.966763,-0.372571,"",,1,,,2,,
"MOBIITI:StopPlace:69516",,"La Croix du Balais",,45.084785,-0.382736,"",,1,,,2,,
"MOBIITI:StopPlace:70946",,"Rue des Chenes",,44.879101,-0.415394,"",,1,,,2,,
"MOBIITI:StopPlace:69517",,"Baudet",,45.090515,-0.385367,"",,1,,,2,,
"MOBIITI:StopPlace:70943",,"Le Marquisat",,44.903179,-0.483997,"",,1,,,2,,
"MOBIITI:StopPlace:70944",,"Av. du Perigord",,44.865475,-0.472301,"",,1,,,2,,
"MOBIITI:StopPlace:70949",,"Av. de Verdun",,44.878902,-0.427351,"",,1,,,2,,
"MOBIITI:StopPlace:70947",,"Gare SNCF Cenon",,44.856308,-0.533591,"",,1,,,2,,
"MOBIITI:StopPlace:70948",,"Lauduc",,44.864662,-0.459854,"",,1,,,2,,
"MOBIITI:StopPlace:69992",,"Platon 2",,44.768604,-0.419120,"",,1,,,2,,
"MOBIITI:StopPlace:69993",,"Mairie",,44.819813,-0.345522,"",,1,,,2,,
"MOBIITI:StopPlace:69994",,"Clos d'Alban",,44.773891,-0.416531,"",,1,,,2,,
"MOBIITI:StopPlace:69510",,"Vieux Bourg",,45.036285,-0.440121,"",,1,,,2,,
"MOBIITI:StopPlace:45540",,"Village d'Issac",,44.895725,-0.773219,"BORDEAUX_METROPOLE:TariffZone:33449",,1,,,0,,
"MOBIITI:StopPlace:69995",,"Bourg",,44.799889,-0.249008,"",,1,,,2,,
"MOBIITI:StopPlace:69511",,"Mairie",,45.028072,-0.440994,"",,1,,,2,,
"MOBIITI:StopPlace:69996",,"Av. de Bordeaux",,44.778030,-0.461932,"",,1,,,2,,
"MOBIITI:StopPlace:69512",,"Le Piney",,45.020645,-0.423523,"",,1,,,2,,
"MOBIITI:StopPlace:69997",,"La Borde",,44.781910,-0.392538,"",,1,,,2,,
"MOBIITI:StopPlace:69513",,"Grand Etienne",,45.022846,-0.423264,"",,1,,,2,,
"MOBIITI:StopPlace:45543",,"Collège d'Hastignan",,44.893761,-0.745395,"BORDEAUX_METROPOLE:TariffZone:33449",,1,,,0,,
"MOBIITI:StopPlace:69998",,"Gachet",,44.776360,-0.412729,"",,1,,,2,,
"MOBIITI:StopPlace:69514",,"Gueynard",,45.055023,-0.401145,"",,1,,,2,,
"MOBIITI:StopPlace:69515",,"Bourg",,45.041710,-0.395032,"",,1,,,2,,
"MOBIITI:StopPlace:69991",,"Galouchey",,44.761097,-0.372819,"",,1,,,2,,
"MOBIITI:StopPlace:70952",,"Rivasseau",,44.865170,-0.454145,"",,1,,,2,,
"MOBIITI:StopPlace:70950",,"Rue de la Chaise",,44.878510,-0.424176,"",,1,,,2,,
"MOBIITI:StopPlace:70951",,"Gachet",,44.868156,-0.443972,"",,1,,,2,,
"MOBIITI:StopPlace:56204",,"Esplanade F. Mitterrand",,44.917122,-0.240880,"",,1,,,0,,
"MOBIITI:StopPlace:70956",,"Lalande",,44.872223,-0.431430,"",,1,,,2,,
"MOBIITI:StopPlace:69989",,"Perdri Gail",,44.816723,-0.343699,"",,1,,,2,,
"MOBIITI:StopPlace:69505",,"Le Grand Village",,45.065155,-0.466404,"",,1,,,2,,
"MOBIITI:StopPlace:69506",,"Mairie",,45.116650,-0.402902,"",,1,,,2,,
"MOBIITI:StopPlace:69507",,"Mairie",,44.994663,-0.446562,"",,1,,,2,,
"MOBIITI:StopPlace:70959",,"Cité du vin",,44.860767,-0.554078,"",,1,,,2,,
"MOBIITI:StopPlace:69981",,"Tambourins",,44.754925,-0.448839,"",,1,,,2,,
"MOBIITI:StopPlace:46400",,"La Morandière","av de Magudas",44.858658,-0.678093,"BORDEAUX_METROPOLE:TariffZone:33200",,1,,,0,,
"MOBIITI:StopPlace:69982",,"Patagrou",,44.747963,-0.423140,"",,1,,,2,,
"MOBIITI:StopPlace:69983",,"La Pastorale",,44.750504,-0.444129,"",,1,,,2,,
"MOBIITI:StopPlace:69984",,"Stade",,44.748226,-0.431684,"",,1,,,2,,
"MOBIITI:StopPlace:69500",,"Beneteau",,45.139217,-0.466698,"",,1,,,2,,
"MOBIITI:StopPlace:45556",,"Centre Commercial Herriot","Centre Commercial",44.884079,-0.690814,"BORDEAUX_METROPOLE:TariffZone:33449",,1,,,0,,
"MOBIITI:StopPlace:69985",,"La Marqueuse",,44.759457,-0.433209,"",,1,,,2,,
"MOBIITI:StopPlace:69501",,"Bourdillas",,45.156181,-0.561769,"",,1,,,2,,
"MOBIITI:StopPlace:69986",,"Argenton",,44.754742,-0.435575,"",,1,,,2,,
"MOBIITI:StopPlace:69502",,"Le Pas de Bourg",,45.107555,-0.462034,"",,1,,,2,,
"MOBIITI:StopPlace:69987",,"Carr. Reynaud",,44.823071,-0.349535,"",,1,,,2,,
"MOBIITI:StopPlace:69503",,"La Borderie",,45.127075,-0.456822,"",,1,,,2,,
"MOBIITI:StopPlace:69988",,"La Vidane",,44.812405,-0.341334,"",,1,,,2,,
"MOBIITI:StopPlace:69504",,"Les Coureaux",,45.082527,-0.463928,"",,1,,,2,,
"MOBIITI:StopPlace:69980",,"Bourg",,44.779514,-0.460663,"",,1,,,2,,
"MOBIITI:StopPlace:70960",,"La Prairie",,44.867260,-0.496590,"",,1,,,2,,
"MOBIITI:StopPlace:70963",,"Route d'Yvrac",,44.879070,-0.444163,"",,1,,,2,,
"MOBIITI:StopPlace:70961",,"Le Poteau d'Yvrac","",44.865360,-0.473946,"BORDEAUX_METROPOLE:TariffZone:33013",,1,,,2,,
"MOBIITI:StopPlace:70962",,"Cimetiere",,44.866375,-0.490332,"",,1,,,2,,
"MOBIITI:StopPlace:70527",,"Eglise",,44.982056,-0.603954,"",,1,,,2,,
"MOBIITI:StopPlace:69538",,"Les Chaumes",,45.024773,-0.429064,"",,1,,,2,,
"MOBIITI:StopPlace:70528",,"Le Chateau",,45.040470,-0.674185,"",,1,,,2,,
"MOBIITI:StopPlace:69539",,"Cosson",,45.104317,-0.443616,"",,1,,,2,,
"MOBIITI:StopPlace:46417",,"Mérignac Soleil","",44.831043,-0.656871,"BORDEAUX_METROPOLE:TariffZone:33281",,1,,,0,,
"MOBIITI:StopPlace:70525",,"Les Lauriers",,44.977226,-0.605221,"",,1,,,2,,
"MOBIITI:StopPlace:70526",,"La Loubeyre",,44.974827,-0.607123,"",,1,,,2,,
"MOBIITI:StopPlace:70529",,"La Begorce",,45.048061,-0.690363,"",,1,,,2,,
"MOBIITI:StopPlace:46411",,"Berles",,44.859440,-0.685195,"BORDEAUX_METROPOLE:TariffZone:33200",,1,,,0,,
"MOBIITI:StopPlace:69531",,"Le Sartre",,45.051235,-0.439250,"",,1,,,2,,
"MOBIITI:StopPlace:69532",,"La Sicarderie",,45.047569,-0.428050,"",,1,,,2,,
"MOBIITI:StopPlace:69533",,"Foyer Communal",,45.108231,-0.342997,"",,1,,,2,,
"MOBIITI:StopPlace:69534",,"Bourg",,45.088985,-0.419281,"",,1,,,2,,
"MOBIITI:StopPlace:69535",,"Bois de Brouilla",,45.021393,-0.437363,"",,1,,,2,,
"MOBIITI:StopPlace:69536",,"Rue de Guillou",,45.023438,-0.445895,"",,1,,,2,,
"MOBIITI:StopPlace:69537",,"Douat",,45.028397,-0.435666,"",,1,,,2,,
"MOBIITI:StopPlace:70530",,"Centre Commercial",,44.956039,-0.628765,"",,1,,,2,,
"MOBIITI:StopPlace:70531",,"Caychac","",44.929916,-0.634758,"BORDEAUX_METROPOLE:TariffZone:33056",,1,,,2,,
"MOBIITI:StopPlace:56220",,"Lycée Jean Monnet",,44.905815,-0.241356,"",,1,,,0,,
"MOBIITI:StopPlace:70534",,"Chambres Neuves",,44.974884,-0.624153,"",,1,,,2,,
"MOBIITI:StopPlace:70535",,"Bourg",,45.056000,-0.699180,"",,1,,,2,,
"MOBIITI:StopPlace:70532",,"Margaux Bourg",,45.043346,-0.677942,"",,1,,,2,,
"MOBIITI:StopPlace:70533",,"Lafont",,44.990181,-0.609177,"",,1,,,2,,
"MOBIITI:StopPlace:70538",,"Eglise",,45.021618,-0.638838,"",,1,,,2,,
"MOBIITI:StopPlace:69527",,"Jean Mermoz",,45.026932,-0.448036,"",,1,,,2,,
"MOBIITI:StopPlace:70539",,"Rosemont",,45.015011,-0.639343,"",,1,,,2,,
"MOBIITI:StopPlace:69528",,"Ecole",,45.017094,-0.462400,"",,1,,,2,,
"MOBIITI:StopPlace:69529",,"Les Ortigues",,45.083946,-0.387434,"",,1,,,2,,
"MOBIITI:StopPlace:70536",,"Rue de la Gare",,44.975571,-0.610851,"",,1,,,2,,
"MOBIITI:StopPlace:70537",,"Giscours",,45.010494,-0.636381,"",,1,,,2,,
"MOBIITI:StopPlace:48608",,"Stalingrad",,44.839970,-0.559281,"",,1,,,2,,
"MOBIITI:StopPlace:69520",,"Champ de Foire",,44.995209,-0.443568,"",,1,,,2,,
"MOBIITI:StopPlace:69521",,"Font du Vergne",,45.107418,-0.383982,"",,1,,,2,,
"MOBIITI:StopPlace:69522",,"Les Ligers",,45.053333,-0.427816,"",,1,,,2,,
"MOBIITI:StopPlace:69523",,"Coll. E. Durkheim",,45.043674,-0.421953,"",,1,,,2,,
"MOBIITI:StopPlace:69524",,"Pl. St Michel",,44.992760,-0.442177,"",,1,,,2,,
"MOBIITI:StopPlace:69525",,"La Croix de Merlet",,45.062847,-0.399221,"",,1,,,2,,
"MOBIITI:StopPlace:69526",,"Bourg",,45.073036,-0.408280,"",,1,,,2,,
"MOBIITI:StopPlace:70541",,"Issan",,45.035221,-0.668291,"",,1,,,2,,
"MOBIITI:StopPlace:70542",,"Labric No26",,44.993664,-0.630702,"",,1,,,2,,
"MOBIITI:StopPlace:70540",,"Cantenac Bourg",,45.028545,-0.653622,"",,1,,,2,,
"MOBIITI:StopPlace:70546",,"Rue de l'Europe",,45.003750,-0.622849,"",,1,,,2,,
"MOBIITI:StopPlace:70543",,"Le Poujeau",,44.948845,-0.630587,"",,1,,,2,,
"MOBIITI:StopPlace:70544",,"Peybois",,44.939960,-0.632813,"BORDEAUX_METROPOLE:TariffZone:33056",,1,,,2,,
"MOBIITI:StopPlace:70989",,"Gare Routiere",,44.914848,-0.237281,"",,1,,,2,,
"MOBIITI:StopPlace:70505",,"Le Bois de Luget 2",,44.936974,-0.703317,"",,1,,,2,,
"MOBIITI:StopPlace:70506",,"Le Pontet",,44.949100,-0.685825,"",,1,,,2,,
"MOBIITI:StopPlace:70503",,"Gendarmerie",,45.025276,-0.792213,"",,1,,,2,,
"MOBIITI:StopPlace:70987",,"Naudin",,44.925575,-0.301276,"",,1,,,2,,
"MOBIITI:StopPlace:70988",,"La Poste",,44.929497,-0.303687,"",,1,,,2,,
"MOBIITI:StopPlace:70504",,"Coll. Blanquefort","",44.906731,-0.628434,"BORDEAUX_METROPOLE:TariffZone:33056",,1,,,2,,
"MOBIITI:StopPlace:70509",,"Garil Senejac",,44.960705,-0.691438,"",,1,,,2,,
"MOBIITI:StopPlace:70507",,"Scierie",,44.957726,-0.706515,"",,1,,,2,,
"MOBIITI:StopPlace:70508",,"Rosa Bonheur",,44.947594,-0.643598,"",,1,,,2,,
"MOBIITI:StopPlace:69552",,"Jean Petit",,45.111828,-0.424749,"",,1,,,2,,
"MOBIITI:StopPlace:69553",,"Bousquet",,45.079895,-0.382060,"",,1,,,2,,
"MOBIITI:StopPlace:69554",,"Plaisance",,45.091873,-0.431734,"",,1,,,2,,
"MOBIITI:StopPlace:46431",,"Lycée sud Médoc","Bois de Mont",44.905125,-0.713548,"BORDEAUX_METROPOLE:TariffZone:33376",,1,,,0,,
"MOBIITI:StopPlace:69556",,"Ecole",,45.208889,-0.635153,"",,1,,,2,,
"MOBIITI:StopPlace:69557",,"Bourg",,45.247276,-0.625928,"",,1,,,2,,
"MOBIITI:StopPlace:69558",,"Le Passage",,45.223469,-0.653091,"",,1,,,2,,
"MOBIITI:StopPlace:69559",,"Bourg",,45.160652,-0.622684,"",,1,,,2,,
"MOBIITI:StopPlace:69550",,"Seguin",,45.095150,-0.437779,"",,1,,,2,,
"MOBIITI:StopPlace:69551",,"Beauvent",,45.147251,-0.366557,"",,1,,,2,,
"MOBIITI:StopPlace:70992",,"La Gare",,44.971718,-0.383624,"",,1,,,2,,
"MOBIITI:StopPlace:70993",,"La Chevalerie",,44.979195,0.037565,"",,1,,,2,,
"MOBIITI:StopPlace:70991",,"Mouluire",,44.976086,-0.393412,"",,1,,,2,,
"MOBIITI:StopPlace:70512",,"Bern",,45.006451,-0.630281,"",,1,,,2,,
"MOBIITI:StopPlace:70996",,"Colas Nouet",,44.960991,-0.151976,"",,1,,,2,,
"MOBIITI:StopPlace:70513",,"Les Trois Moulins",,45.004314,-0.625471,"",,1,,,2,,
"MOBIITI:StopPlace:70997",,"Cornemps",,44.980141,-0.036409,"",,1,,,2,,
"MOBIITI:StopPlace:70510",,"Bourg",,45.034023,-0.755659,"",,1,,,2,,
"MOBIITI:StopPlace:70994",,"Les Martins",,44.983696,-0.087193,"",,1,,,2,,
"MOBIITI:StopPlace:70995",,"Jamard",,44.969631,-0.088795,"",,1,,,2,,
"MOBIITI:StopPlace:70511",,"99 Allée du Comte",,44.970612,-0.722759,"",,1,,,2,,
"MOBIITI:StopPlace:70516",,"Labric",,44.990269,-0.632512,"",,1,,,2,,
"MOBIITI:StopPlace:70517",,"Landegrand","",44.960442,-0.626127,"BORDEAUX_METROPOLE:TariffZone:33312",,1,,,2,,
"MOBIITI:StopPlace:70514",,"Gare TER",,45.004078,-0.619751,"",,1,,,2,,
"MOBIITI:StopPlace:70998",,"Sorillon",,44.981300,-0.070631,"",,1,,,2,,
"MOBIITI:StopPlace:70515",,"La Grillade",,44.999615,-0.613863,"",,1,,,2,,
"MOBIITI:StopPlace:70999",,"La Margagne",,44.984489,-0.078527,"",,1,,,2,,
"MOBIITI:StopPlace:70518",,"Paloumey",,44.980682,-0.630475,"",,1,,,2,,
"MOBIITI:StopPlace:70519",,"Chem. de Garennes",,44.986942,-0.605404,"",,1,,,2,,
"MOBIITI:StopPlace:69541",,"Ecole",,45.069515,-0.377140,"",,1,,,2,,
"MOBIITI:StopPlace:69542",,"Meillier",,45.051331,-0.396939,"",,1,,,2,,
"MOBIITI:StopPlace:47773",,"Gambetta Mériadeck",,44.839947,-0.583567,"BORDEAUX_METROPOLE:TariffZone:33063",,1,,,0,,
"MOBIITI:StopPlace:69543",,"Bourg",,45.111523,-0.443394,"",,1,,,2,,
"MOBIITI:StopPlace:69544",,"Baillargeau",,45.047062,-0.394023,"",,1,,,2,,
"MOBIITI:StopPlace:69545",,"Bois Martin",,45.037930,-0.414216,"",,1,,,2,,
"MOBIITI:StopPlace:69546",,"La Clie",,45.019676,-0.431197,"",,1,,,2,,
"MOBIITI:StopPlace:69547",,"Bourg",,45.030285,-0.441449,"",,1,,,2,,
"MOBIITI:StopPlace:69548",,"Les Michauds 1",,45.107815,-0.443380,"",,1,,,2,,
"MOBIITI:StopPlace:69540",,"Pierrebrune",,45.149685,-0.355597,"",,1,,,2,,
"MOBIITI:StopPlace:70520",,"La Taste",,44.968239,-0.612641,"",,1,,,2,,
"MOBIITI:StopPlace:70524",,"La Lagune",,44.977867,-0.623294,"",,1,,,2,,
"MOBIITI:StopPlace:70521",,"Malleret",,44.965946,-0.626327,"",,1,,,2,,
"MOBIITI:StopPlace:70522",,"Chat. Paloumey",,44.985737,-0.631091,"",,1,,,2,,
"MOBIITI:StopPlace:71419",,"Bel Orme","",44.847450,-0.595454,"BORDEAUX_METROPOLE:TariffZone:33063",,1,,,2,,
"MOBIITI:StopPlace:71417",,"Foin",,44.928101,-0.678796,"BORDEAUX_METROPOLE:TariffZone:33519",,1,,,2,,
"MOBIITI:StopPlace:70569",,"Rte de Groussac",,45.276688,-1.039714,"",,1,,,2,,
"MOBIITI:StopPlace:48638",,"4 Chemins",,44.832642,-0.644929,"BORDEAUX_METROPOLE:TariffZone:33281",,1,,,2,,
"MOBIITI:StopPlace:69574",,"Mairie",,45.224480,-0.573077,"",,1,,,2,,
"MOBIITI:StopPlace:69575",,"Les Ferres 3",,45.279568,-0.612309,"",,1,,,2,,
"MOBIITI:StopPlace:69576",,"Cite Pagnolet",,45.280285,-0.608994,"",,1,,,2,,
"MOBIITI:StopPlace:69578",,"Bourg",,45.173866,-0.628831,"",,1,,,2,,
"MOBIITI:StopPlace:69579",,"La Belle Bergere",,45.179688,-0.607735,"",,1,,,2,,
"MOBIITI:StopPlace:70570",,"Moulin de Rigaud",,45.257996,-1.030612,"",,1,,,2,,
"MOBIITI:StopPlace:69571",,"Colinet",,45.136677,-0.656349,"",,1,,,2,,
"MOBIITI:StopPlace:70571",,"Biscarosse",,45.163059,-0.894270,"",,1,,,2,,
"MOBIITI:StopPlace:69573",,"Cornillas",,45.219032,-0.570334,"",,1,,,2,,
"MOBIITI:StopPlace:71422",,"Soubiras","",44.863331,-0.618590,"BORDEAUX_METROPOLE:TariffZone:33063",,1,,,2,,
"MOBIITI:StopPlace:70574",,"I.M.E.",,45.113293,-0.853672,"",,1,,,2,,
"MOBIITI:StopPlace:70575",,"Bourg",,45.254303,-1.023728,"",,1,,,2,,
"MOBIITI:StopPlace:70572",,"Villeneuve 1",,45.161392,-0.850645,"",,1,,,2,,
"MOBIITI:StopPlace:70573",,"Moulin de Mourlan",,45.149933,-0.889921,"",,1,,,2,,
"MOBIITI:StopPlace:71426",,"Le Vigean","Centre Commercial",44.882919,-0.631262,"BORDEAUX_METROPOLE:TariffZone:33162",,1,,,2,,
"MOBIITI:StopPlace:70578",,"Carr. de Groussac",,45.284225,-1.043586,"",,1,,,2,,
"MOBIITI:StopPlace:71425",,"Bourg",,45.202015,-0.834954,"",,1,,,2,,
"MOBIITI:StopPlace:70579",,"St Isidore",,45.269814,-1.103239,"",,1,,,2,,
"MOBIITI:StopPlace:71424",,"Donissan",,45.104504,-0.803718,"",,1,,,2,,
"MOBIITI:StopPlace:70576",,"Lizan 1",,45.260105,-1.080259,"",,1,,,2,,
"MOBIITI:StopPlace:70577",,"Gloyac",,45.271641,-1.064414,"",,1,,,2,,
"MOBIITI:StopPlace:71429",,"Bourg",,44.889362,-0.648119,"BORDEAUX_METROPOLE:TariffZone:33162",,1,,,2,,
"MOBIITI:StopPlace:71427",,"Pins Francs",,44.866707,-0.623598,"BORDEAUX_METROPOLE:TariffZone:33069",,1,,,2,,
"MOBIITI:StopPlace:48645",,"Hôpital Pellegrin",,44.830215,-0.604508,"BORDEAUX_METROPOLE:TariffZone:33063",,1,,,2,,
"MOBIITI:StopPlace:46466",,"Centre Commercial du Lac","",44.881699,-0.566377,"BORDEAUX_METROPOLE:TariffZone:33063",,1,,,0,,
"MOBIITI:StopPlace:69563",,"Les Ecoles",,45.160629,-0.626169,"",,1,,,2,,
"MOBIITI:StopPlace:69564",,"Les Andiottes",,45.158997,-0.628110,"",,1,,,2,,
"MOBIITI:StopPlace:69565",,"Les Penauds",,45.291862,-0.576611,"",,1,,,2,,
"MOBIITI:StopPlace:69566",,"Les Ferres",,45.273876,-0.616427,"",,1,,,2,,
"MOBIITI:StopPlace:69567",,"Chauvrelles",,45.284889,-0.609346,"",,1,,,2,,
"MOBIITI:StopPlace:69568",,"Ferchaud",,45.290852,-0.569675,"",,1,,,2,,
"MOBIITI:StopPlace:69569",,"Bourg",,45.284142,-0.561175,"",,1,,,2,,
"MOBIITI:StopPlace:70581",,"Zone Artisanale",,45.000896,-0.622228,"",,1,,,2,,
"MOBIITI:StopPlace:69560",,"La Clairiere",,45.184563,-0.605227,"",,1,,,2,,
"MOBIITI:StopPlace:70582",,"Coll. Porte du Medoc",,44.947113,-0.598886,"",,1,,,2,,
"MOBIITI:StopPlace:69561",,"Stade",,45.157375,-0.618263,"",,1,,,2,,
"MOBIITI:StopPlace:69562",,"Mauchien",,45.283253,-0.609177,"",,1,,,2,,
"MOBIITI:StopPlace:70580",,"Coll. J. Chambrelent",,45.190460,-1.057466,"",,1,,,2,,
"MOBIITI:StopPlace:70101",,"Les Dagoisses",,44.661266,-0.343876,"",,1,,,2,,
"MOBIITI:StopPlace:70585",,"Cantelaude",,45.003876,-0.640683,"",,1,,,2,,
"MOBIITI:StopPlace:70102",,"St Seurin",,44.668373,-0.351073,"",,1,,,2,,
"MOBIITI:StopPlace:70586",,"Rte d'Arsac 2",,44.971165,-0.721857,"",,1,,,2,,
"MOBIITI:StopPlace:70583",,"Gare TER",,44.975594,-0.611292,"",,1,,,2,,
"MOBIITI:StopPlace:71431",,"Gare TER",,44.917603,-0.624043,"",,1,,,2,,
"MOBIITI:StopPlace:70100",,"Le Pied du Chateau",,44.698669,-0.384297,"",,1,,,2,,
"MOBIITI:StopPlace:71430",,"Général de Gaulle","",44.874683,-0.619087,"BORDEAUX_METROPOLE:TariffZone:33069",,1,,,2,,
"MOBIITI:StopPlace:70105",,"Centre",,44.705437,-0.399369,"",,1,,,2,,
"MOBIITI:StopPlace:70589",,"J. Faure",,45.026741,-0.654636,"",,1,,,2,,
"MOBIITI:StopPlace:70106",,"Beausejour",,44.656754,-0.339571,"",,1,,,2,,
"MOBIITI:StopPlace:70587",,"Ligondras",,45.009827,-0.683892,"",,1,,,2,,
"MOBIITI:StopPlace:70103",,"Chat. Carsin",,44.663380,-0.322226,"",,1,,,2,,
"MOBIITI:StopPlace:71435",,"Caroline Aigle",,44.835453,-0.690759,"BORDEAUX_METROPOLE:TariffZone:33281",,1,,,2,,
"MOBIITI:StopPlace:70104",,"Bourg",,44.665482,-0.348962,"",,1,,,2,,
"MOBIITI:StopPlace:70588",,"Chem. Boulibra",,45.030178,-0.683438,"",,1,,,2,,
"MOBIITI:StopPlace:70549",,"Bruguenegre",,45.165707,-0.895511,"",,1,,,2,,
"MOBIITI:StopPlace:70547",,"Cante Merle",,44.992992,-0.619462,"",,1,,,2,,
"MOBIITI:StopPlace:70548",,"Bardouillan 2",,45.124634,-0.815958,"",,1,,,2,,
"MOBIITI:StopPlace:69596",,"La Roque",,45.197685,-0.613458,"",,1,,,2,,
"MOBIITI:StopPlace:69598",,"Bourg",,45.234276,-0.507916,"",,1,,,2,,
"MOBIITI:StopPlace:69599",,"Les Martinettes",,45.213844,-0.552168,"",,1,,,2,,
"MOBIITI:StopPlace:69590",,"Les Brunets",,45.209473,-0.618877,"",,1,,,2,,
"MOBIITI:StopPlace:69591",,"La Croix Pallard",,45.205822,-0.613308,"",,1,,,2,,
"MOBIITI:StopPlace:69592",,"Bel Air",,45.209717,-0.624684,"",,1,,,2,,
"MOBIITI:StopPlace:69595",,"La Garde",,45.154839,-0.631625,"",,1,,,2,,
"MOBIITI:StopPlace:71400",,"Barrière St Médard",,44.848759,-0.597340,"BORDEAUX_METROPOLE:TariffZone:33063",,1,,,2,,
"MOBIITI:StopPlace:70552",,"Villeneuve",,45.164436,-0.851507,"",,1,,,2,,
"MOBIITI:StopPlace:70553",,"Senajou",,45.114666,-0.857020,"",,1,,,2,,
"MOBIITI:StopPlace:70550",,"Le Peyrat",,45.171501,-0.853346,"",,1,,,2,,
"MOBIITI:StopPlace:70551",,"Rionet",,45.153580,-0.844052,"",,1,,,2,,
"MOBIITI:StopPlace:70556",,"Larousse",,45.172874,-0.867392,"",,1,,,2,,
"MOBIITI:StopPlace:71403",,"Roger Allo",,44.844261,-0.589357,"BORDEAUX_METROPOLE:TariffZone:33063",,1,,,2,,
"MOBIITI:StopPlace:70557",,"Picard",,45.127708,-0.861139,"",,1,,,2,,
"MOBIITI:StopPlace:71402",,"Parc Bordelais",,44.854431,-0.598594,"BORDEAUX_METROPOLE:TariffZone:33063",,1,,,2,,
"MOBIITI:StopPlace:70554",,"Semignan",,45.169708,-0.893403,"",,1,,,2,,
"MOBIITI:StopPlace:71407",,"Cantinolle",,44.892033,-0.667601,"",,1,,,2,,
"MOBIITI:StopPlace:71406",,"Louens",,44.944897,-0.691324,"",,1,,,2,,
"MOBIITI:StopPlace:70558",,"Mourlan",,45.145462,-0.882961,"",,1,,,2,,
"MOBIITI:StopPlace:71405",,"Rue de Cauderan",,44.846493,-0.597545,"BORDEAUX_METROPOLE:TariffZone:33063",,1,,,2,,
"MOBIITI:StopPlace:70559",,"Le Ferron",,45.165447,-0.869955,"",,1,,,2,,
"MOBIITI:StopPlace:71409",,"Hippodrome",,44.873661,-0.630312,"",,1,,,2,,
"MOBIITI:StopPlace:69585",,"La Martiniere",,45.280060,-0.566852,"",,1,,,2,,
"MOBIITI:StopPlace:46487",,"Avenue de Paris",,44.871616,-0.511907,"BORDEAUX_METROPOLE:TariffZone:33249",,1,,,0,,
"MOBIITI:StopPlace:69586",,"Guillonnet",,45.202297,-0.613541,"",,1,,,2,,
"MOBIITI:StopPlace:69587",,"La Rie",,45.201553,-0.631778,"",,1,,,2,,
"MOBIITI:StopPlace:69588",,"Bourg",,45.211941,-0.636313,"",,1,,,2,,
"MOBIITI:StopPlace:69589",,"La Tonnelle",,45.205811,-0.634869,"",,1,,,2,,
"MOBIITI:StopPlace:69580",,"Pl. Maronniers",,45.292007,-0.608054,"",,1,,,2,,
"MOBIITI:StopPlace:69581",,"Les Alains",,45.261517,-0.621371,"",,1,,,2,,
"MOBIITI:StopPlace:70560",,"Le Drap",,45.126919,-0.823336,"",,1,,,2,,
"MOBIITI:StopPlace:69582",,"La Garenne",,45.249706,-0.625062,"",,1,,,2,,
"MOBIITI:StopPlace:69583",,"Azac 1",,45.242943,-0.580275,"",,1,,,2,,
"MOBIITI:StopPlace:69584",,"Pas des Fenetres",,45.252861,-0.565014,"",,1,,,2,,
"MOBIITI:StopPlace:71411",,"Le Fourcas",,45.086376,-0.796482,"",,1,,,2,,
"MOBIITI:StopPlace:70563",,"Cartujac",,45.137016,-0.841438,"",,1,,,2,,
"MOBIITI:StopPlace:71410",,"Le Poteau",,45.007599,-0.771762,"",,1,,,2,,
"MOBIITI:StopPlace:70564",,"Bernos",,45.123047,-0.838808,"",,1,,,2,,
"MOBIITI:StopPlace:70561",,"Marcillan","",45.161621,-0.839892,"",,1,,,2,,
"MOBIITI:StopPlace:70562",,"Caserne Pompiers",,45.150261,-0.827462,"",,1,,,2,,
"MOBIITI:StopPlace:70567",,"Lamongeau",,45.150352,-0.851959,"",,1,,,2,,
"MOBIITI:StopPlace:70568",,"Benon",,45.115379,-0.845987,"",,1,,,2,,
"MOBIITI:StopPlace:71413",,"La Pargaud",,44.907867,-0.668912,"BORDEAUX_METROPOLE:TariffZone:33519",,1,,,2,,
"MOBIITI:StopPlace:70565",,"Fourthon",,45.172604,-0.840305,"",,1,,,2,,
"MOBIITI:StopPlace:71412",,"Av. de Braude",,44.913719,-0.668766,"BORDEAUX_METROPOLE:TariffZone:33519",,1,,,2,,
"MOBIITI:StopPlace:70566",,"Ecoles",,45.146255,-0.827660,"",,1,,,2,,
"MOBIITI:StopPlace:70008",,"Lestrille",,44.817768,-0.254847,"",,1,,,2,,
"MOBIITI:StopPlace:71339",,"Av. de la Liberation",,44.605396,-0.933983,"",,1,,,2,,
"MOBIITI:StopPlace:70009",,"La Ferme",,44.816727,-0.361899,"",,1,,,2,,
"MOBIITI:StopPlace:46378",,"Bruges Centre",,44.882622,-0.611043,"BORDEAUX_METROPOLE:TariffZone:33075",,1,,,0,,
"MOBIITI:StopPlace:69497",,"Rte de Niaud",,45.027191,-0.452692,"",,1,,,2,,
"MOBIITI:StopPlace:69498",,"La Botte",,45.168541,-0.576927,"",,1,,,2,,
"MOBIITI:StopPlace:69499",,"Pl. de la Liberation",,45.140415,-0.447282,"",,1,,,2,,
"MOBIITI:StopPlace:70490",,"Beaulieu",,44.959404,-0.709677,"",,1,,,2,,
"MOBIITI:StopPlace:69490",,"Bourg de St Antoine",,45.017994,-0.425017,"",,1,,,2,,
"MOBIITI:StopPlace:69491",,"Gare TER",,45.139069,-0.393220,"",,1,,,2,,
"MOBIITI:StopPlace:71341",,"Rue du Port du Betey",,44.738037,-1.090642,"",,1,,,2,,
"MOBIITI:StopPlace:69493",,"Bourg",,45.177078,-0.564366,"",,1,,,2,,
"MOBIITI:StopPlace:71340",,"Le Mauret",,44.732155,-1.079180,"",,1,,,2,,
"MOBIITI:StopPlace:70494",,"Rue Montesquieu","",44.907623,-0.639213,"BORDEAUX_METROPOLE:TariffZone:33056",,1,,,2,,
"MOBIITI:StopPlace:70010",,"Grand Bois",,44.825436,-0.353543,"",,1,,,2,,
"MOBIITI:StopPlace:69494",,"Thibaud",,45.170311,-0.567824,"",,1,,,2,,
"MOBIITI:StopPlace:69495",,"Gautret",,45.135448,-0.544052,"",,1,,,2,,
"MOBIITI:StopPlace:69496",,"Gadonne",,45.168301,-0.571617,"",,1,,,2,,
"MOBIITI:StopPlace:71345",,"Cimetiere",,44.679001,-1.009163,"",,1,,,2,,
"MOBIITI:StopPlace:70013",,"Salle des Fetes",,44.820972,-0.313834,"",,1,,,2,,
"MOBIITI:StopPlace:71344",,"Mairie",,44.684315,-1.016481,"",,1,,,2,,
"MOBIITI:StopPlace:70498",,"Chem. de l'Eau",,44.948196,-0.632784,"",,1,,,2,,
"MOBIITI:StopPlace:70014",,"Le Pin",,44.834202,-0.316755,"",,1,,,2,,
"MOBIITI:StopPlace:71343",,"Caserne des Pompiers",,44.646259,-0.982868,"",,1,,,2,,
"MOBIITI:StopPlace:70011",,"Chem. de Buzi",,44.821621,-0.360441,"",,1,,,2,,
"MOBIITI:StopPlace:71342",,"Tagon",,44.656483,-0.987364,"",,1,,,2,,
"MOBIITI:StopPlace:70496",,"Lycee des Metiers","",44.911457,-0.619288,"BORDEAUX_METROPOLE:TariffZone:33056",,1,,,2,,
"MOBIITI:StopPlace:70012",,"Chem. Le Gris",,44.826344,-0.363110,"",,1,,,2,,
"MOBIITI:StopPlace:71349",,"Cassy",,44.712254,-1.056492,"",,1,,,2,,
"MOBIITI:StopPlace:70017",,"Terrefort",,44.822624,-0.322882,"",,1,,,2,,
"MOBIITI:StopPlace:71348",,"Stade",,44.714306,-1.060060,"",,1,,,2,,
"MOBIITI:StopPlace:70018",,"Beaupied","",44.845531,-0.332482,"",,1,,,2,,
"MOBIITI:StopPlace:71347",,"Taudignon",,44.559956,-0.874422,"",,1,,,2,,
"MOBIITI:StopPlace:70499",,"Marlene",,44.952480,-0.685902,"",,1,,,2,,
"MOBIITI:StopPlace:70015",,"Le Moulard",,44.836559,-0.319637,"",,1,,,2,,
"MOBIITI:StopPlace:71346",,"Av. de Certes",,44.688293,-1.019725,"",,1,,,2,,
"MOBIITI:StopPlace:70016",,"Luchey Haut",,44.825489,-0.320600,"",,1,,,2,,
"MOBIITI:StopPlace:70019",,"Theophile",,44.829819,-0.326643,"",,1,,,2,,
"MOBIITI:StopPlace:69487",,"Coll. Val de Saye",,45.138874,-0.409756,"",,1,,,2,,
"MOBIITI:StopPlace:69488",,"La Croix Blanche",,45.113037,-0.577206,"",,1,,,2,,
"MOBIITI:StopPlace:69489",,"Le Poteau",,45.101589,-0.539746,"",,1,,,2,,
"MOBIITI:StopPlace:69481",,"Hotel de Ville",,45.127159,-0.663160,"",,1,,,2,,
"MOBIITI:StopPlace:71352",,"Croix de Taussat",,44.717770,-1.064236,"",,1,,,2,,
"MOBIITI:StopPlace:70020",,"Cassarat",,44.822903,-0.314875,"",,1,,,2,,
"MOBIITI:StopPlace:69482",,"L'Ombriere",,45.137238,-0.484298,"",,1,,,2,,
"MOBIITI:StopPlace:71351",,"Le Braou",,44.703922,-1.039259,"",,1,,,2,,
"MOBIITI:StopPlace:70021",,"Petit Jean",,44.805599,-0.326854,"",,1,,,2,,
"MOBIITI:StopPlace:69483",,"St-Leger",,45.076557,-0.461954,"",,1,,,2,,
"MOBIITI:StopPlace:71350",,"Taussat",,44.724072,-1.068180,"",,1,,,2,,
"MOBIITI:StopPlace:69484",,"Lyc. P. Cousteau",,44.989826,-0.449593,"",,1,,,2,,
"MOBIITI:StopPlace:69485",,"Cite Lamothe",,44.991447,-0.444331,"",,1,,,2,,
"MOBIITI:StopPlace:71356",,"Peyot",,44.602039,-0.923850,"",,1,,,2,,
"MOBIITI:StopPlace:70024",,"Baudin",,44.758083,-0.329331,"",,1,,,2,,
"MOBIITI:StopPlace:71355",,"Le Bois de Freurot",,44.613159,-0.946732,"",,1,,,2,,
"MOBIITI:StopPlace:70025",,"Eglise","",44.780754,-0.411111,"",,1,,,2,,
"MOBIITI:StopPlace:71354",,"Le Roumingue",,44.705723,-1.043864,"",,1,,,2,,
"MOBIITI:StopPlace:70022",,"Bourg",,44.760109,-0.196249,"",,1,,,2,,
"MOBIITI:StopPlace:71353",,"La Poste",,44.701694,-1.033576,"",,1,,,2,,
"MOBIITI:StopPlace:70023",,"Grangeneuve/C. Coop.",,44.756107,-0.206766,"",,1,,,2,,
"MOBIITI:StopPlace:70028",,"Grimard",,44.766296,-0.334069,"",,1,,,2,,
"MOBIITI:StopPlace:71359",,"La Petite Poste",,44.734493,-1.083726,"",,1,,,2,,
"MOBIITI:StopPlace:71358",,"Ocean le Grand Crohot",,44.798733,-1.222186,"",,1,,,2,,
"MOBIITI:StopPlace:70026",,"Coll. F. Mitterrand",,44.772259,-0.353496,"",,1,,,2,,
"MOBIITI:StopPlace:71357",,"Salle des Fetes",,44.606335,-0.939391,"",,1,,,2,,
"MOBIITI:StopPlace:70027",,"Picon",,44.713200,-0.395996,"",,1,,,2,,
"MOBIITI:StopPlace:71319",,"Rd Pt Granet",,44.768295,-0.659965,"",,1,,,2,,
"MOBIITI:StopPlace:71318",,"Le Courneau",,44.763851,-0.669321,"",,1,,,2,,
"MOBIITI:StopPlace:71317",,"Marticot","",44.753899,-0.685313,"",,1,,,2,,
"MOBIITI:StopPlace:46398",,"Le Haillan Rostand","",44.858540,-0.667801,"BORDEAUX_METROPOLE:TariffZone:33281",,1,,,0,,
"MOBIITI:StopPlace:70471",,"La Cousteyre",,44.988075,-1.082793,"",,1,,,2,,
"MOBIITI:StopPlace:70472",,"Pitrot",,45.007710,-1.112822,"",,1,,,2,,
"MOBIITI:StopPlace:46393",,"Route de Pauillac",,44.884464,-0.634960,"BORDEAUX_METROPOLE:TariffZone:33162",,1,,,0,,
"MOBIITI:StopPlace:70470",,"Cosec",,44.979946,-1.074546,"",,1,,,2,,
"MOBIITI:StopPlace:70475",,"Sautuges",,44.877506,-0.935898,"",,1,,,2,,
"MOBIITI:StopPlace:71323",,"Maison de Retraite",,44.747742,-0.655196,"",,1,,,2,,
"MOBIITI:StopPlace:71322",,"Serignan",,44.760803,-0.675607,"",,1,,,2,,
"MOBIITI:StopPlace:70473",,"Marina Talaris",,44.996399,-1.088024,"",,1,,,2,,
"MOBIITI:StopPlace:71321",,"La Briquetterie","",44.775188,-0.663868,"",,1,,,2,,
"MOBIITI:StopPlace:71320",,"Ausone","",44.801159,-0.616998,"BORDEAUX_METROPOLE:TariffZone:33318",,1,,,2,,
"MOBIITI:StopPlace:70474",,"Groupe Scolaire",,44.878490,-0.981446,"",,1,,,2,,
"MOBIITI:StopPlace:71327",,"Mano","",44.748909,-0.683387,"",,1,,,2,,
"MOBIITI:StopPlace:70479",,"Mairie",,44.998665,-0.688482,"",,1,,,2,,
"MOBIITI:StopPlace:71325",,"Europarc",,44.781044,-0.655496,"BORDEAUX_METROPOLE:TariffZone:33318",,1,,,2,,
"MOBIITI:StopPlace:71324",,"Eiffel",,44.786255,-0.639196,"",,1,,,2,,
"MOBIITI:StopPlace:70478",,"Rue Cazeau Vieil",,44.993855,-0.693367,"",,1,,,2,,
"MOBIITI:StopPlace:71329",,"Av. Mlle de la Harpe","",44.745117,-0.682722,"",,1,,,2,,
"MOBIITI:StopPlace:71328",,"Pl. Bosquets de Pujau","",44.740711,-0.677347,"",,1,,,2,,
"MOBIITI:StopPlace:71330",,"Clinique Mutualiste",,44.805286,-0.609567,"BORDEAUX_METROPOLE:TariffZone:33318",,1,,,2,,
"MOBIITI:StopPlace:70482",,"Rue F. Mauriac",,44.944996,-0.689284,"",,1,,,2,,
"MOBIITI:StopPlace:70483",,"Genissan",,44.954933,-0.675310,"",,1,,,2,,
"MOBIITI:StopPlace:70480",,"Mairie",,44.955406,-0.670747,"",,1,,,2,,
"MOBIITI:StopPlace:70481",,"Lyc. J. Duperier",,44.896088,-0.705663,"",,1,,,2,,
"MOBIITI:StopPlace:71334",,"Pres de Pinguet",,44.742062,-0.668352,"",,1,,,2,,
"MOBIITI:StopPlace:70486",,"Coll. Panchon",,44.990253,-0.694860,"",,1,,,2,,
"MOBIITI:StopPlace:70002",,"Le Canton",,44.795105,-0.360442,"",,1,,,2,,
"MOBIITI:StopPlace:71333",,"Gendarmerie","",44.741943,-0.684049,"",,1,,,2,,
"MOBIITI:StopPlace:70003",,"Bourg",,44.831165,-0.363507,"",,1,,,2,,
"MOBIITI:StopPlace:70487",,"27 Allée du comte",,44.983871,-0.703972,"",,1,,,2,,
"MOBIITI:StopPlace:71332",,"Mairie","",44.762367,-0.653357,"",,1,,,2,,
"MOBIITI:StopPlace:70484",,"Senejac",,44.962715,-0.688876,"",,1,,,2,,
"MOBIITI:StopPlace:71331",,"Allee des Bleuets",,44.763336,-0.657377,"",,1,,,2,,
"MOBIITI:StopPlace:70485",,"Les Airials",,44.946175,-0.655031,"",,1,,,2,,
"MOBIITI:StopPlace:70001",,"Richard",,44.790226,-0.359509,"",,1,,,2,,
"MOBIITI:StopPlace:71338",,"Lillet",,44.591892,-0.898554,"",,1,,,2,,
"MOBIITI:StopPlace:70006",,"Le Breuil",,44.773975,-0.277655,"",,1,,,2,,
"MOBIITI:StopPlace:71337",,"Stade","",44.740948,-0.679984,"",,1,,,2,,
"MOBIITI:StopPlace:70007",,"Rte de Creon 117",,44.780430,-0.367589,"",,1,,,2,,
"MOBIITI:StopPlace:70488",,"Allee de Segur",,44.963791,-0.715241,"",,1,,,2,,
"MOBIITI:StopPlace:71336",,"Léonard de Vinci Pessac",,44.782696,-0.652457,"BORDEAUX_METROPOLE:TariffZone:33318",,1,,,2,,
"MOBIITI:StopPlace:70489",,"Pont Bernet",,44.954613,-0.703598,"",,1,,,2,,
"MOBIITI:StopPlace:71335",,"Gutenberg",,44.787697,-0.645937,"BORDEAUX_METROPOLE:TariffZone:33318",,1,,,2,,
"MOBIITI:StopPlace:70005",,"Langlois",,44.812225,-0.391720,"",,1,,,2,,
"MOBIITI:StopPlace:71381",,"Bibliotheque","",44.834999,-0.586251,"BORDEAUX_METROPOLE:TariffZone:33063",,1,,,2,,
"MOBIITI:StopPlace:71380",,"Hop. Pellegrin Maurian",,44.831005,-0.604875,"",,1,,,2,,
"MOBIITI:StopPlace:71385",,"Avenue de Bordeaux",,44.875443,-1.083355,"",,1,,,2,,
"MOBIITI:StopPlace:70053",,"Rivalan",,44.807266,-0.360555,"",,1,,,2,,
"MOBIITI:StopPlace:71384",,"Coubertin",,44.862221,-0.645088,"BORDEAUX_METROPOLE:TariffZone:33162",,1,,,2,,
"MOBIITI:StopPlace:70054",,"La Cite",,44.800076,-0.359259,"",,1,,,2,,
"MOBIITI:StopPlace:71382",,"Eglise",,44.872990,-1.093150,"",,1,,,2,,
"MOBIITI:StopPlace:71389",,"Picot",,44.904171,-0.743806,"",,1,,,2,,
"MOBIITI:StopPlace:70057",,"Boutin",,44.781464,-0.377663,"",,1,,,2,,
"MOBIITI:StopPlace:70058",,"Les Carrieres",,44.792042,-0.500984,"",,1,,,2,,
"MOBIITI:StopPlace:71387",,"La Grande Escoure",,44.967621,-1.143515,"",,1,,,2,,
"MOBIITI:StopPlace:70055",,"Bourg",,44.771812,-0.318585,"",,1,,,2,,
"MOBIITI:StopPlace:71386",,"Longarisse",,44.961105,-1.136196,"",,1,,,2,,
"MOBIITI:StopPlace:70056",,"Carensac",,44.818008,-0.268599,"",,1,,,2,,
"MOBIITI:StopPlace:70059",,"La Seleyre",,44.802479,-0.503380,"",,1,,,2,,
"MOBIITI:StopPlace:71392",,"Hippodrome",,44.877506,-0.623302,"",,1,,,2,,
"MOBIITI:StopPlace:70060",,"Le Ruth",,44.755562,-0.228522,"",,1,,,2,,
"MOBIITI:StopPlace:71391",,"Hippodrome",,44.873783,-0.629836,"",,1,,,2,,
"MOBIITI:StopPlace:70061",,"Gardes",,44.771832,-0.239195,"",,1,,,2,,
"MOBIITI:StopPlace:71390",,"Rte d'Arsac",,44.970528,-0.723720,"",,1,,,2,,
"MOBIITI:StopPlace:71396",,"La Poste",,45.145939,-0.821390,"",,1,,,2,,
"MOBIITI:StopPlace:70064",,"Mairie",,44.753132,-0.382540,"",,1,,,2,,
"MOBIITI:StopPlace:71395",,"Verdun",,44.860569,-0.612113,"BORDEAUX_METROPOLE:TariffZone:33063",,1,,,2,,
"MOBIITI:StopPlace:70065",,"Molas",,44.748447,-0.390545,"",,1,,,2,,
"MOBIITI:StopPlace:71394",,"Fongrouse",,45.296448,-0.929364,"",,1,,,2,,
"MOBIITI:StopPlace:70062",,"La Laiterie",,44.774380,-0.243560,"",,1,,,2,,
"MOBIITI:StopPlace:71393",,"Le Linas",,44.985455,-0.743268,"",,1,,,2,,
"MOBIITI:StopPlace:70063",,"Stade",,44.821320,-0.286121,"",,1,,,2,,
"MOBIITI:StopPlace:70068",,"Distillerie",,44.743256,-0.381694,"",,1,,,2,,
"MOBIITI:StopPlace:70069",,"Le Portail",,44.759315,-0.376046,"",,1,,,2,,
"MOBIITI:StopPlace:71398",,"Pasteur",,44.845795,-0.598550,"BORDEAUX_METROPOLE:TariffZone:33063",,1,,,2,,
"MOBIITI:StopPlace:71397",,"Quatre Moulins",,45.114071,-0.807553,"",,1,,,2,,
"MOBIITI:StopPlace:70067",,"Salin 2",,44.760220,-0.313859,"",,1,,,2,,
"MOBIITI:StopPlace:71363",,"Ville",,44.977543,-1.074315,"",,1,,,2,,
"MOBIITI:StopPlace:70031",,"Ecole Primaire",,44.773129,-0.350473,"",,1,,,2,,
"MOBIITI:StopPlace:71362",,"Gare TER",,44.637741,-0.965960,"",,1,,,2,,
"MOBIITI:StopPlace:70032",,"Cite Pt Bois",,44.848000,-0.329732,"",,1,,,2,,
"MOBIITI:StopPlace:71361",,"Mairie",,44.641891,-0.976627,"",,1,,,2,,
"MOBIITI:StopPlace:71360",,"Z.A.",,44.638039,-0.956728,"",,1,,,2,,
"MOBIITI:StopPlace:70030",,"Mailleau",,44.751186,-0.332629,"",,1,,,2,,
"MOBIITI:StopPlace:71367",,"Capeyron","",44.852070,-0.645174,"BORDEAUX_METROPOLE:TariffZone:33281",,1,,,2,,
"MOBIITI:StopPlace:70035",,"Eglise",,44.735500,-0.371330,"",,1,,,2,,
"MOBIITI:StopPlace:71366",,"Centre Commercial",,44.976574,-1.066661,"",,1,,,2,,
"MOBIITI:StopPlace:70036",,"Moreau",,44.804096,-0.329967,"",,1,,,2,,
"MOBIITI:StopPlace:70033",,"Foyer Communal",,44.856396,-0.322998,"",,1,,,2,,
"MOBIITI:StopPlace:71365",,"Bourg",,44.873360,-1.092381,"",,1,,,2,,
"MOBIITI:StopPlace:71364",,"Marie Curie",,45.002529,-1.186306,"",,1,,,2,,
"MOBIITI:StopPlace:70034",,"La Magrine","",44.822498,-0.292744,"",,1,,,2,,
"MOBIITI:StopPlace:70039",,"Courcouyac",,44.720203,-0.382229,"",,1,,,2,,
"MOBIITI:StopPlace:70037",,"Barlan",,44.794632,-0.336849,"",,1,,,2,,
"MOBIITI:StopPlace:71368",,"Centre Tram",,44.841419,-0.646727,"",,1,,,2,,
"MOBIITI:StopPlace:70038",,"Les Faures",,44.727329,-0.363172,"",,1,,,2,,
"MOBIITI:StopPlace:71370",,"Ocean",,44.893394,-1.211931,"",,1,,,2,,
"MOBIITI:StopPlace:71373",,"Pl. de la Republique","",44.895142,-0.714425,"BORDEAUX_METROPOLE:TariffZone:33449",,1,,,2,,
"MOBIITI:StopPlace:70043",,"Bourg",,44.767498,-0.488130,"",,1,,,2,,
"MOBIITI:StopPlace:71372",,"Belfort",,44.894524,-0.767959,"BORDEAUX_METROPOLE:TariffZone:33449",,1,,,2,,
"MOBIITI:StopPlace:70040",,"Rte du Chateau",,44.793121,-0.334401,"",,1,,,2,,
"MOBIITI:StopPlace:71371",,"Mairie","",44.872906,-0.677782,"BORDEAUX_METROPOLE:TariffZone:33200",,1,,,2,,
"MOBIITI:StopPlace:71378",,"Camp. La Grigne",,44.894386,-1.201474,"",,1,,,2,,
"MOBIITI:StopPlace:71377",,"Village de Cerillan",,44.894588,-0.757708,"BORDEAUX_METROPOLE:TariffZone:33449",,1,,,2,,
"MOBIITI:StopPlace:71376",,"Hastignan",,44.897655,-0.745133,"BORDEAUX_METROPOLE:TariffZone:33449",,1,,,2,,
"MOBIITI:StopPlace:70045",,"Bourg",,44.771240,-0.227661,"",,1,,,2,,
"MOBIITI:StopPlace:70048",,"Ecole",,44.802513,-0.339522,"",,1,,,2,,
"MOBIITI:StopPlace:71379",,"Pl. de la Victoire",,44.831177,-0.573903,"",,1,,,2,,
"MOBIITI:StopPlace:70049",,"Les Ecoles",,44.735249,-0.359488,"",,1,,,2,,
"MOBIITI:StopPlace:70090",,"Monplaisir",,44.570717,-0.246551,"",,1,,,2,,
"MOBIITI:StopPlace:70093",,"La Croix",,44.627541,-0.266784,"",,1,,,2,,
"MOBIITI:StopPlace:70091",,"La Lane",,44.575542,-0.255574,"",,1,,,2,,
"MOBIITI:StopPlace:70092",,"Les Noyers",,44.568394,-0.242308,"",,1,,,2,,
"MOBIITI:StopPlace:70097",,"Bourg",,44.710239,-0.403427,"",,1,,,2,,
"MOBIITI:StopPlace:70098",,"Fond d'Arlan",,44.681293,-0.362995,"",,1,,,2,,
"MOBIITI:StopPlace:70095",,"Pl. des Capucins",,44.637054,-0.317442,"",,1,,,2,,
"MOBIITI:StopPlace:70096",,"Bellevue",,44.772671,-0.492765,"",,1,,,2,,
"MOBIITI:StopPlace:70099",,"Centre",,44.685600,-0.365016,"",,1,,,2,,
"MOBIITI:StopPlace:72284",,"Le Poteau","",44.919109,-0.480475,"BORDEAUX_METROPOLE:TariffZone:33003",,1,,,0,,
"MOBIITI:StopPlace:70071",,"Bourg",,44.624332,-0.301742,"",,1,,,2,,
"MOBIITI:StopPlace:70072",,"Bourg",,44.626415,-0.270640,"",,1,,,2,,
"MOBIITI:StopPlace:70070",,"Nardique",,44.764481,-0.368882,"",,1,,,2,,
"MOBIITI:StopPlace:70076",,"Mairie",,44.679901,-0.321758,"",,1,,,2,,
"MOBIITI:StopPlace:70079",,"Chem Port de l'Homme",,44.785336,-0.503621,"",,1,,,2,,
"MOBIITI:StopPlace:70078",,"Gaudin",,44.708935,-0.315638,"",,1,,,2,,
"MOBIITI:StopPlace:70082",,"Lampon",,44.690819,-0.371778,"",,1,,,2,,
"MOBIITI:StopPlace:70083",,"Rd Pt du 5 Decembre",,44.786591,-0.498483,"",,1,,,2,,
"MOBIITI:StopPlace:70080",,"Pitchat",,44.618122,-0.298072,"",,1,,,2,,
"MOBIITI:StopPlace:70081",,"Chat. Lagarere",,44.695709,-0.378727,"",,1,,,2,,
"MOBIITI:StopPlace:70086",,"Bourg",,44.711857,-0.331029,"",,1,,,2,,
"MOBIITI:StopPlace:70087",,"Le Gardera",,44.700378,-0.389485,"",,1,,,2,,
"MOBIITI:StopPlace:70084",,"Calvaire",,44.678970,-0.327648,"",,1,,,2,,
"MOBIITI:StopPlace:70085",,"La Martingue Sud",,44.631458,-0.250570,"",,1,,,2,,
"MOBIITI:StopPlace:45909",,"Lycée Daguin","",44.837036,-0.648902,"BORDEAUX_METROPOLE:TariffZone:33281",,1,,,0,,
"MOBIITI:StopPlace:70089",,"Mairie",,44.578945,-0.261011,"",,1,,,2,,
"MOBIITI:StopPlace:69912",,"Le Canton",,44.765293,-0.275365,"",,1,,,2,,
"MOBIITI:StopPlace:43765",,"Gare","",44.897465,-0.316444,"",,1,,,2,,
"MOBIITI:StopPlace:69915",,"Vienne",,44.769840,-0.488317,"",,1,,,2,,
"MOBIITI:StopPlace:69916",,"ZA Les Platanes",,44.769279,-0.446738,"",,1,,,2,,
"MOBIITI:StopPlace:69917",,"Office du Tourisme",,44.776093,-0.349632,"",,1,,,2,,
"MOBIITI:StopPlace:69918",,"La Croix",,44.770924,-0.352507,"",,1,,,2,,
"MOBIITI:StopPlace:69919",,"Jossim",,44.769714,-0.435381,"",,1,,,2,,
"MOBIITI:StopPlace:69910",,"Bourg",,44.768616,-0.272408,"",,1,,,2,,
"MOBIITI:StopPlace:69911",,"J. Guillos",,44.774754,-0.268458,"",,1,,,2,,
"MOBIITI:StopPlace:69909",,"Aire de Covoiturage",,44.778561,-0.495458,"",,1,,,2,,
"MOBIITI:StopPlace:69901",,"La Relle",,44.824451,-0.440627,"",,1,,,2,,
"MOBIITI:StopPlace:69902",,"La Fraise",,44.815460,-0.447891,"",,1,,,2,,
"MOBIITI:StopPlace:69903",,"Mairie",,44.824100,-0.446810,"",,1,,,2,,
"MOBIITI:StopPlace:45954",,"Thales",,44.848824,-0.700358,"BORDEAUX_METROPOLE:TariffZone:33281",,1,,,0,,
"MOBIITI:StopPlace:69906",,"Platon",,44.768856,-0.421405,"",,1,,,2,,
"MOBIITI:StopPlace:69907",,"Centre Commercial",,44.772003,-0.336950,"",,1,,,2,,
"MOBIITI:StopPlace:69908",,"Chanterot",,44.755291,-0.286881,"",,1,,,2,,
"MOBIITI:StopPlace:45953",,"Aéroparc","av Dassault",44.850319,-0.693078,"BORDEAUX_METROPOLE:TariffZone:33281",,1,,,0,,
"MOBIITI:StopPlace:69900",,"Ecole",,44.820427,-0.438063,"",,1,,,2,,
"MOBIITI:StopPlace:69615",,"Res. la Pinede",,45.230705,-0.567576,"",,1,,,2,,
"MOBIITI:StopPlace:70604",,"Ermitage Lamourous",,44.964771,-0.648700,"",,1,,,2,,
"MOBIITI:StopPlace:70605",,"Feydieu",,44.977859,-0.635567,"",,1,,,2,,
"MOBIITI:StopPlace:69616",,"Les Annereaux",,45.322517,-0.593219,"",,1,,,2,,
"MOBIITI:StopPlace:70602",,"Le Bernet",,44.959251,-0.698053,"",,1,,,2,,
"MOBIITI:StopPlace:69617",,"Chez Mimaux",,45.331661,-0.578423,"",,1,,,2,,
"MOBIITI:StopPlace:70603",,"Petit Feydieu",,44.977253,-0.628785,"",,1,,,2,,
"MOBIITI:StopPlace:69618",,"La Haie",,45.326576,-0.577641,"",,1,,,2,,
"MOBIITI:StopPlace:70608",,"Lagunegrand",,45.033318,-0.693837,"",,1,,,2,,
"MOBIITI:StopPlace:69619",,"Coll. J. Monnet",,45.293507,-0.612842,"",,1,,,2,,
"MOBIITI:StopPlace:70609",,"Chem. de Morian",,44.959202,-0.652465,"",,1,,,2,,
"MOBIITI:StopPlace:70606",,"Calbat",,45.019047,-0.680391,"",,1,,,2,,
"MOBIITI:StopPlace:70607",,"Matheou",,45.032909,-0.679667,"",,1,,,2,,
"MOBIITI:StopPlace:69610",,"Le Grand Village",,45.259903,-0.526485,"",,1,,,2,,
"MOBIITI:StopPlace:69611",,"Eglise",,45.291512,-0.611191,"",,1,,,2,,
"MOBIITI:StopPlace:69612",,"Le Bouil",,45.195541,-0.642531,"",,1,,,2,,
"MOBIITI:StopPlace:69613",,"Vrillant",,45.196995,-0.646975,"",,1,,,2,,
"MOBIITI:StopPlace:45642",,"République","",44.834667,-0.579688,"BORDEAUX_METROPOLE:TariffZone:33063",,1,,,0,,
"MOBIITI:StopPlace:69614",,"Verdot",,45.216129,-0.496097,"",,1,,,2,,
"MOBIITI:StopPlace:70611",,"Lot. Le Verger 1",,44.951096,-0.646815,"",,1,,,2,,
"MOBIITI:StopPlace:70612",,"Allee Montesquieu 2",,44.958546,-0.658991,"",,1,,,2,,
"MOBIITI:StopPlace:70610",,"Chem. Rouges Gorges",,44.952091,-0.653806,"",,1,,,2,,
"MOBIITI:StopPlace:69604",,"Les Mongeais",,45.310162,-0.596157,"",,1,,,2,,
"MOBIITI:StopPlace:70615",,"Bellegrave",,44.948395,-0.641461,"",,1,,,2,,
"MOBIITI:StopPlace:70616",,"Rue J. Curie",,45.034733,-0.680836,"",,1,,,2,,
"MOBIITI:StopPlace:69605",,"La Garenne",,45.314198,-0.593606,"",,1,,,2,,
"MOBIITI:StopPlace:70613",,"Allee Montesquieu 1",,44.960472,-0.654214,"",,1,,,2,,
"MOBIITI:StopPlace:69606",,"Le Calvaire",,45.245689,-0.447221,"",,1,,,2,,
"MOBIITI:StopPlace:70614",,"Chopinot",,44.964592,-0.676890,"",,1,,,2,,
"MOBIITI:StopPlace:69607",,"Bourg",,45.248550,-0.445182,"",,1,,,2,,
"MOBIITI:StopPlace:70619",,"PN",,45.038296,-0.694463,"",,1,,,2,,
"MOBIITI:StopPlace:69608",,"Les Hauts Ponts",,45.270935,-0.544156,"",,1,,,2,,
"MOBIITI:StopPlace:69609",,"Bourg",,45.268772,-0.525455,"",,1,,,2,,
"MOBIITI:StopPlace:70617",,"Rue Corneillan",,45.034653,-0.689296,"",,1,,,2,,
"MOBIITI:StopPlace:70618",,"Chat. Angludet",,45.020279,-0.663859,"",,1,,,2,,
"MOBIITI:StopPlace:45650",,"Gambetta","",44.841843,-0.580058,"BORDEAUX_METROPOLE:TariffZone:33063",,1,,,0,,
"MOBIITI:StopPlace:69600",,"Les Bertrands",,45.243740,-0.526013,"",,1,,,2,,
"MOBIITI:StopPlace:69601",,"Vignolles",,45.262772,-0.541291,"",,1,,,2,,
"MOBIITI:StopPlace:69602",,"Peage",,45.255840,-0.549029,"",,1,,,2,,
"MOBIITI:StopPlace:69603",,"Bourg",,45.314175,-0.591264,"",,1,,,2,,
"MOBIITI:StopPlace:70622",,"Bourg",,45.443645,-1.089214,"",,1,,,2,,
"MOBIITI:StopPlace:70623",,"Bourg",,45.343636,-0.848837,"",,1,,,2,,
"MOBIITI:StopPlace:70620",,"Lot. Le Verger 2",,44.950130,-0.643962,"",,1,,,2,,
"MOBIITI:StopPlace:70621",,"Benqueyre",,45.021126,-0.678494,"",,1,,,2,,
"MOBIITI:StopPlace:69637",,"Fondcaillou",,45.019020,-0.453816,"",,1,,,2,,
"MOBIITI:StopPlace:69638",,"La Bellue",,45.078594,-0.423489,"",,1,,,2,,
"MOBIITI:StopPlace:69639",,"Guillou",,45.023968,-0.441813,"",,1,,,2,,
"MOBIITI:StopPlace:69630",,"St Martial",,45.064301,-0.417641,"",,1,,,2,,
"MOBIITI:StopPlace:69631",,"Manon",,45.076279,-0.431687,"",,1,,,2,,
"MOBIITI:StopPlace:69632",,"Chadeuil",,45.073303,-0.421173,"",,1,,,2,,
"MOBIITI:StopPlace:69633",,"La Nauve",,45.075371,-0.428415,"",,1,,,2,,
"MOBIITI:StopPlace:69634",,"Le Canton",,45.080959,-0.431665,"",,1,,,2,,
"MOBIITI:StopPlace:69635",,"Le Tasta",,45.080154,-0.427865,"",,1,,,2,,
"MOBIITI:StopPlace:69636",,"Matthieu",,45.021046,-0.452052,"",,1,,,2,,
"MOBIITI:StopPlace:69626",,"La Cabane",,45.242966,-0.542230,"",,1,,,2,,
"MOBIITI:StopPlace:69627",,"La Comteau",,45.203293,-0.582931,"",,1,,,2,,
"MOBIITI:StopPlace:69628",,"La Gravette",,45.064724,-0.407793,"",,1,,,2,,
"MOBIITI:StopPlace:69629",,"Les Trois Maines",,45.074558,-0.413603,"",,1,,,2,,
"MOBIITI:StopPlace:69620",,"Bel Air",,45.323692,-0.576960,"",,1,,,2,,
"MOBIITI:StopPlace:69621",,"Chez Pidoux",,45.331432,-0.593916,"",,1,,,2,,
"MOBIITI:StopPlace:69622",,"La Croisette",,45.345127,-0.586770,"",,1,,,2,,
"MOBIITI:StopPlace:69623",,"Champ des Chailles",,45.263580,-0.573864,"",,1,,,2,,
"MOBIITI:StopPlace:45675",,"Collège Chambéry",,44.756664,-0.584362,"BORDEAUX_METROPOLE:TariffZone:33550",,1,,,0,,
"MOBIITI:StopPlace:69624",,"Mais. Associations",,45.267632,-0.561692,"",,1,,,2,,
"MOBIITI:StopPlace:69625",,"Verdot",,45.208698,-0.498676,"",,1,,,2,,
"MOBIITI:StopPlace:70600",,"Le Pez",,45.045185,-0.704692,"",,1,,,2,,
"MOBIITI:StopPlace:70601",,"Bessan",,45.049831,-0.699244,"",,1,,,2,,
"MOBIITI:StopPlace:70648",,"Lot. le Pointon",,45.393131,-0.915082,"",,1,,,2,,
"MOBIITI:StopPlace:70649",,"Condissas",,45.375412,-0.878770,"",,1,,,2,,
"MOBIITI:StopPlace:70646",,"Port de Goulee",,45.404919,-0.910842,"",,1,,,2,,
"MOBIITI:StopPlace:70647",,"Villeneuve",,45.392639,-0.887135,"",,1,,,2,,
"MOBIITI:StopPlace:69651",,"Bourg","",44.884495,-0.285778,"",,1,,,2,,
"MOBIITI:StopPlace:69652",,"Lot. Les Places",,44.899006,-0.485472,"",,1,,,2,,
"MOBIITI:StopPlace:69653",,"Maison Neuve",,44.894718,-0.274080,"",,1,,,2,,
"MOBIITI:StopPlace:69657",,"ZI de la Lande",,44.920891,-0.451338,"",,1,,,2,,
"MOBIITI:StopPlace:69658",,"Maucaillou","",44.920422,-0.370391,"",,1,,,2,,
"MOBIITI:StopPlace:69650",,"Port du Noyer",,44.911148,-0.256684,"",,1,,,2,,
"MOBIITI:StopPlace:70651",,"Office du Tourisme",,45.377766,-1.148467,"",,1,,,2,,
"MOBIITI:StopPlace:70652",,"Rte de la Hargue",,45.374481,-0.932339,"",,1,,,2,,
"MOBIITI:StopPlace:70650",,"Biars",,45.351990,-0.895083,"",,1,,,2,,
"MOBIITI:StopPlace:71503",,"College",,44.793011,-1.145908,"",,1,,,2,,
"MOBIITI:StopPlace:70655",,"Bourg",,45.395699,-0.895383,"",,1,,,2,,
"MOBIITI:StopPlace:71502",,"Av. du Medoc",,44.876766,-1.083730,"",,1,,,2,,
"MOBIITI:StopPlace:70656",,"Le Desertat",,45.349819,-1.057014,"",,1,,,2,,
"MOBIITI:StopPlace:70653",,"Bourg",,45.356407,-1.060208,"",,1,,,2,,
"MOBIITI:StopPlace:71501",,"Chapelle de l'Amelie",,45.484924,-1.148145,"",,1,,,2,,
"MOBIITI:StopPlace:70654",,"La Verdasse",,45.387581,-0.905535,"",,1,,,2,,
"MOBIITI:StopPlace:71500",,"Plage Centre",,45.511749,-1.130966,"",,1,,,2,,
"MOBIITI:StopPlace:69648",,"De Lattre de Tassigny",,44.912689,-0.247500,"",,1,,,2,,
"MOBIITI:StopPlace:71507",,"Lot. Plein Soleil",,44.874256,-1.102624,"",,1,,,2,,
"MOBIITI:StopPlace:70659",,"By",,45.375145,-0.865178,"",,1,,,2,,
"MOBIITI:StopPlace:71506",,"Lot. Prairie Lescarran",,44.878498,-1.084756,"",,1,,,2,,
"MOBIITI:StopPlace:70657",,"Les Pigaux",,45.318298,-1.036501,"",,1,,,2,,
"MOBIITI:StopPlace:70658",,"Courbian",,45.376091,-0.935463,"",,1,,,2,,
"MOBIITI:StopPlace:71509",,"Le Ferron",,44.877045,-1.108714,"",,1,,,2,,
"MOBIITI:StopPlace:71508",,"Rue de la Gare",,44.876560,-1.081713,"",,1,,,2,,
"MOBIITI:StopPlace:69640",,"Communs de Tizac",,45.015137,-0.449255,"",,1,,,2,,
"MOBIITI:StopPlace:69641",,"Rue des Fraisiers",,45.027321,-0.446976,"",,1,,,2,,
"MOBIITI:StopPlace:69642",,"Le Roux",,45.058002,-0.417495,"",,1,,,2,,
"MOBIITI:StopPlace:69643",,"Lot. Jeanjean",,44.903320,-0.477054,"",,1,,,2,,
"MOBIITI:StopPlace:69644",,"Cardinal",,44.900261,-0.477769,"",,1,,,2,,
"MOBIITI:StopPlace:69645",,"Maurel",,44.907318,-0.474977,"",,1,,,2,,
"MOBIITI:StopPlace:69646",,"Blouin",,44.900784,-0.487932,"",,1,,,2,,
"MOBIITI:StopPlace:69647",,"Vivier",,44.896137,-0.481458,"",,1,,,2,,
"MOBIITI:StopPlace:71510",,"Hotel du Porge",,44.868313,-1.089809,"",,1,,,2,,
"MOBIITI:StopPlace:70662",,"Port de By",,45.375721,-0.845516,"",,1,,,2,,
"MOBIITI:StopPlace:70663",,"Begadanet",,45.367310,-0.886806,"",,1,,,2,,
"MOBIITI:StopPlace:70660",,"La Sableyre",,45.364559,-0.906503,"",,1,,,2,,
"MOBIITI:StopPlace:70661",,"Canissac",,45.365509,-0.911077,"",,1,,,2,,
"MOBIITI:StopPlace:71514",,"Le Moulin",,44.875214,-1.088138,"",,1,,,2,,
"MOBIITI:StopPlace:70666",,"Les Payots",,45.360691,-1.078142,"",,1,,,2,,
"MOBIITI:StopPlace:71513",,"Rte des Lacs",,44.889427,-1.097603,"",,1,,,2,,
"MOBIITI:StopPlace:70667",,"Bourg",,45.357246,-0.894068,"",,1,,,2,,
"MOBIITI:StopPlace:71512",,"La Plaine de Lescarran",,44.879009,-1.084868,"",,1,,,2,,
"MOBIITI:StopPlace:70664",,"Le Dehes",,45.336250,-1.053514,"",,1,,,2,,
"MOBIITI:StopPlace:71511",,"La Poste",,44.872604,-1.092199,"",,1,,,2,,
"MOBIITI:StopPlace:70665",,"Sarnac",,45.347607,-1.053175,"",,1,,,2,,
"MOBIITI:StopPlace:70626",,"Mairie",,45.286266,-0.789624,"",,1,,,2,,
"MOBIITI:StopPlace:70627",,"La Marechale",,45.309200,-0.784998,"",,1,,,2,,
"MOBIITI:StopPlace:70624",,"ROUTE DE L'HOPITAL",,45.294323,-0.879185,"",,1,,,2,,
"MOBIITI:StopPlace:70625",,"Cartignac",,45.206982,-1.076711,"",,1,,,2,,
"MOBIITI:StopPlace:70628",,"Coll. Notre Dame",,45.307972,-0.937673,"",,1,,,2,,
"MOBIITI:StopPlace:70629",,"Conneau",,45.272934,-0.930018,"",,1,,,2,,
"MOBIITI:StopPlace:69673",,"Le Ribet",,44.915085,-0.388871,"",,1,,,2,,
"MOBIITI:StopPlace:46553",,"Unitec",,44.796757,-0.621278,"BORDEAUX_METROPOLE:TariffZone:33318",,1,,,0,,
"MOBIITI:StopPlace:69674",,"Pl. l'Ormeau",,44.885651,-0.398553,"",,1,,,2,,
"MOBIITI:StopPlace:69675",,"La Pompe","",44.896267,-0.313673,"",,1,,,2,,
"MOBIITI:StopPlace:69677",,"Nioton","",44.898560,-0.320202,"",,1,,,2,,
"MOBIITI:StopPlace:69678",,"Avenue de la Gare",,44.902355,-0.322422,"",,1,,,2,,
"MOBIITI:StopPlace:69670",,"Baron",,44.897827,-0.477224,"",,1,,,2,,
"MOBIITI:StopPlace:69671",,"La Poste",,44.913288,-0.395440,"",,1,,,2,,
"MOBIITI:StopPlace:69672",,"Quantin",,44.913277,-0.403974,"",,1,,,2,,
"MOBIITI:StopPlace:70630",,"Camblanc",,45.320217,-0.864452,"",,1,,,2,,
"MOBIITI:StopPlace:71965",,"Les Marguerites","",44.724247,-0.527803,"",,1,,,0,,
"MOBIITI:StopPlace:70633",,"Plassan",,45.276382,-0.944805,"",,1,,,2,,
"MOBIITI:StopPlace:71964",,"La Breyra",,44.714561,-0.551862,"",,1,,,0,,
"MOBIITI:StopPlace:70634",,"Bourg",,45.307438,-0.835657,"",,1,,,2,,
"MOBIITI:StopPlace:71963",,"Technopole Montesquieu",,44.713989,-0.580550,"",,1,,,0,,
"MOBIITI:StopPlace:70631",,"Ets Scolaires",,45.299519,-0.926237,"",,1,,,2,,
"MOBIITI:StopPlace:70632",,"Les Marceaux",,45.295685,-0.891890,"",,1,,,2,,
"MOBIITI:StopPlace:70637",,"Chem. de la Foret 64",,45.272461,-0.928931,"",,1,,,2,,
"MOBIITI:StopPlace:70638",,"Potensac",,45.306786,-0.858776,"",,1,,,2,,
"MOBIITI:StopPlace:70635",,"Canquillac",,45.288082,-0.902542,"",,1,,,2,,
"MOBIITI:StopPlace:70636",,"Gare TER",,45.303875,-0.945527,"",,1,,,2,,
"MOBIITI:StopPlace:70639",,"Gare TER",,45.508240,-1.118243,"",,1,,,2,,
"MOBIITI:StopPlace:69662",,"Six Chemins",,44.900299,-0.375686,"",,1,,,2,,
"MOBIITI:StopPlace:69663",,"Couvertaire",,44.916405,-0.446413,"",,1,,,2,,
"MOBIITI:StopPlace:69664",,"Petit Bois",,44.896225,-0.394722,"",,1,,,2,,
"MOBIITI:StopPlace:69665",,"Stade",,44.902470,-0.379983,"",,1,,,2,,
"MOBIITI:StopPlace:69666",,"Tasta",,44.905716,-0.371658,"",,1,,,2,,
"MOBIITI:StopPlace:69667",,"Le Bouey",,44.906319,-0.385928,"",,1,,,2,,
"MOBIITI:StopPlace:69668",,"Bois Mazan",,44.895008,-0.378870,"",,1,,,2,,
"MOBIITI:StopPlace:69660",,"Soupetard",,44.914093,-0.441704,"",,1,,,2,,
"MOBIITI:StopPlace:69661",,"Couquet",,44.914692,-0.443632,"",,1,,,2,,
"MOBIITI:StopPlace:70640",,"Bourg",,45.289333,-0.865774,"",,1,,,2,,
"MOBIITI:StopPlace:70641",,"L'Hopital",,45.298199,-0.875975,"",,1,,,2,,
"MOBIITI:StopPlace:70644",,"St Gaux",,45.268768,-0.909934,"",,1,,,2,,
"MOBIITI:StopPlace:70645",,"Lagune",,45.258247,-0.901572,"",,1,,,2,,
"MOBIITI:StopPlace:70642",,"Liard",,45.275955,-0.915084,"",,1,,,2,,
"MOBIITI:StopPlace:70643",,"Miqueu",,45.279724,-0.874119,"",,1,,,2,,
"MOBIITI:StopPlace:70208",,"Chem. de Pate",,44.726807,-0.522163,"",,1,,,2,,
"MOBIITI:StopPlace:70206",,"Chem. Baulos",,44.737957,-0.540763,"",,1,,,2,,
"MOBIITI:StopPlace:71537",,"Chem. des Bainasses",,45.004299,-1.127438,"",,1,,,2,,
"MOBIITI:StopPlace:70207",,"Av. Gal de Gaulle",,44.752026,-0.533647,"",,1,,,2,,
"MOBIITI:StopPlace:69695",,"Poumey",,44.909088,-0.441458,"",,1,,,2,,
"MOBIITI:StopPlace:69696",,"Crs des Girondins",,44.911415,-0.244755,"",,1,,,2,,
"MOBIITI:StopPlace:69698",,"Chem. de Valentin 2",,44.872192,-0.468652,"",,1,,,2,,
"MOBIITI:StopPlace:69699",,"Lycees",,44.869270,-0.523403,"",,1,,,2,,
"MOBIITI:StopPlace:69691",,"Segransan","",44.888939,-0.308294,"",,1,,,2,,
"MOBIITI:StopPlace:70691",,"Rouman 24",,45.311867,-1.014460,"",,1,,,2,,
"MOBIITI:StopPlace:70692",,"Larnac",,45.375420,-1.000045,"",,1,,,2,,
"MOBIITI:StopPlace:69693",,"La Coupole",,44.914902,-0.424140,"",,1,,,2,,
"MOBIITI:StopPlace:70690",,"Les Garrouils",,45.328613,-1.050839,"",,1,,,2,,
"MOBIITI:StopPlace:69694",,"Coll. M. Linder",,44.909870,-0.427601,"",,1,,,2,,
"MOBIITI:StopPlace:70211",,"Lacanau",,44.660011,-0.496521,"",,1,,,2,,
"MOBIITI:StopPlace:70695",,"Semian",,45.369675,-1.021376,"",,1,,,2,,
"MOBIITI:StopPlace:71543",,"Centre Commercial",,44.827335,-0.446023,"",,1,,,2,,
"MOBIITI:StopPlace:70696",,"Les Ourmes 1",,45.341221,-1.003998,"",,1,,,2,,
"MOBIITI:StopPlace:70693",,"Le Gadet",,45.367252,-1.012116,"",,1,,,2,,
"MOBIITI:StopPlace:70694",,"Gare",,45.367580,-1.001859,"",,1,,,2,,
"MOBIITI:StopPlace:70215",,"Bourg","",44.606598,-0.553766,"",,1,,,2,,
"MOBIITI:StopPlace:70699",,"Queyzans",,45.334793,-0.816531,"",,1,,,2,,
"MOBIITI:StopPlace:71546",,"Sainte Croix",,44.832027,-0.559402,"",,1,,,2,,
"MOBIITI:StopPlace:70216",,"Rue des Sources",,44.706604,-0.457714,"",,1,,,2,,
"MOBIITI:StopPlace:70213",,"Chem. Port des Places",,44.729069,-0.519775,"",,1,,,2,,
"MOBIITI:StopPlace:70697",,"Le Dez",,45.372578,-1.006529,"",,1,,,2,,
"MOBIITI:StopPlace:70698",,"La Hontane",,45.366894,-0.988138,"",,1,,,2,,
"MOBIITI:StopPlace:70219",,"Sarransot",,44.646336,-0.450628,"",,1,,,2,,
"MOBIITI:StopPlace:71549",,"Anatole France",,44.846298,-0.535782,"BORDEAUX_METROPOLE:TariffZone:33119",,1,,,2,,
"MOBIITI:StopPlace:70217",,"Le Bouscaut",,44.750385,-0.547566,"",,1,,,2,,
"MOBIITI:StopPlace:70218",,"Larnavey",,44.657635,-0.474845,"",,1,,,2,,
"MOBIITI:StopPlace:71548",,"Aire de Covoiturage",,44.831551,-0.400121,"",,1,,,2,,
"MOBIITI:StopPlace:69685",,"Coin",,44.895775,-0.332566,"",,1,,,2,,
"MOBIITI:StopPlace:69687",,"Centre",,44.908340,-0.471667,"",,1,,,2,,
"MOBIITI:StopPlace:69688",,"La Ricodonne",,44.922874,-0.464838,"BORDEAUX_METROPOLE:TariffZone:33003",,1,,,2,,
"MOBIITI:StopPlace:69680",,"Les Placettes","",44.908169,-0.323694,"",,1,,,2,,
"MOBIITI:StopPlace:71550",,"Musée d'Aquitaine",,44.835018,-0.574298,"",,1,,,2,,
"MOBIITI:StopPlace:69681",,"Loume",,44.912441,-0.474976,"",,1,,,2,,
"MOBIITI:StopPlace:69682",,"L'Argentiere",,44.917175,-0.476570,"",,1,,,2,,
"MOBIITI:StopPlace:70223",,"La Rouille",,44.649059,-0.461317,"",,1,,,2,,
"MOBIITI:StopPlace:71552",,"Porte de Bourgogne",,44.835960,-0.567206,"BORDEAUX_METROPOLE:TariffZone:33063",,1,,,2,,
"MOBIITI:StopPlace:70221",,"Pl. Jeansotte",,44.652225,-0.469799,"",,1,,,2,,
"MOBIITI:StopPlace:71558",,"Carpo",,44.717880,-0.523301,"",,1,,,2,,
"MOBIITI:StopPlace:70227",,"Roman",,44.682339,-0.511025,"",,1,,,2,,
"MOBIITI:StopPlace:70224",,"Les Argelins",,44.666595,-0.478208,"",,1,,,2,,
"MOBIITI:StopPlace:70225",,"Stade",,44.752213,-0.540564,"",,1,,,2,,
"MOBIITI:StopPlace:71517",,"Rte de la Jenny",,44.839542,-1.123113,"",,1,,,2,,
"MOBIITI:StopPlace:70668",,"Laujac",,45.364754,-0.935512,"",,1,,,2,,
"MOBIITI:StopPlace:70669",,"Les Cabans",,45.364338,-0.900823,"",,1,,,2,,
"MOBIITI:StopPlace:70670",,"Les Bernedes",,45.352699,-0.872663,"",,1,,,2,,
"MOBIITI:StopPlace:70673",,"La Lagune",,45.382706,-0.854625,"",,1,,,2,,
"MOBIITI:StopPlace:70674",,"Chemin Sablé des Pins",,45.402988,-0.986978,"",,1,,,2,,
"MOBIITI:StopPlace:70671",,"Chat. Loudenne",,45.319782,-0.793562,"",,1,,,2,,
"MOBIITI:StopPlace:70672",,"Bourg",,45.321968,-0.820543,"",,1,,,2,,
"MOBIITI:StopPlace:70677",,"Aire de Loisirs",,45.395145,-0.895201,"",,1,,,2,,
"MOBIITI:StopPlace:71525",,"Av. Cote d'Argent 48",,44.888004,-1.088447,"",,1,,,2,,
"MOBIITI:StopPlace:70678",,"Bourg",,45.327675,-0.912887,"",,1,,,2,,
"MOBIITI:StopPlace:71524",,"Lyc. Nord Bassin 2",,44.752346,-1.078249,"",,1,,,2,,
"MOBIITI:StopPlace:70675",,"Peris",,45.260395,-0.870191,"",,1,,,2,,
"MOBIITI:StopPlace:71523",,"Coll. A. Lahaye",,44.746014,-1.087362,"",,1,,,2,,
"MOBIITI:StopPlace:71522",,"Bourg",,44.880043,-0.990182,"",,1,,,2,,
"MOBIITI:StopPlace:70676",,"Troussas",,45.383553,-0.881277,"",,1,,,2,,
"MOBIITI:StopPlace:71529",,"Av. Cote d'Argent 39","",44.884212,-1.086238,"",,1,,,2,,
"MOBIITI:StopPlace:71528",,"Chat. d'Eau",,44.920612,-0.988770,"",,1,,,2,,
"MOBIITI:StopPlace:70679",,"Lafon",,45.312260,-0.892498,"",,1,,,2,,
"MOBIITI:StopPlace:46128",,"Peixotto","Tram B",44.807205,-0.592381,"BORDEAUX_METROPOLE:TariffZone:33522",,1,,,0,,
"MOBIITI:StopPlace:70680",,"Rue des Fontaines",,45.308136,-0.896660,"",,1,,,2,,
"MOBIITI:StopPlace:70681",,"Les Eyres",,45.442478,-1.095777,"",,1,,,2,,
"MOBIITI:StopPlace:70684",,"Carr. de Daugagnan",,45.439968,-1.064116,"",,1,,,2,,
"MOBIITI:StopPlace:70200",,"Ricotte",,44.683590,-0.511580,"",,1,,,2,,
"MOBIITI:StopPlace:71531",,"Salle l'Escoure Ocean",,45.001579,-1.195699,"",,1,,,2,,
"MOBIITI:StopPlace:70201",,"La Sauque",,44.691307,-0.512052,"",,1,,,2,,
"MOBIITI:StopPlace:70685",,"Rue de la Becade",,45.173775,-1.053700,"",,1,,,2,,
"MOBIITI:StopPlace:70682",,"Garage Piot",,45.444885,-1.107622,"",,1,,,2,,
"MOBIITI:StopPlace:71530",,"Le Huga",,45.005417,-1.169187,"",,1,,,2,,
"MOBIITI:StopPlace:70683",,"Gendarmerie",,45.079006,-1.046135,"",,1,,,2,,
"MOBIITI:StopPlace:71536",,"Le Moutchic",,45.002529,-1.135162,"",,1,,,2,,
"MOBIITI:StopPlace:70688",,"Front de Mer",,45.378845,-1.153393,"",,1,,,2,,
"MOBIITI:StopPlace:70204",,"Rue de Courdouney",,44.738873,-0.531015,"",,1,,,2,,
"MOBIITI:StopPlace:70689",,"Av. de l'Europe",,45.377068,-1.143758,"",,1,,,2,,
"MOBIITI:StopPlace:70202",,"Lamothe Le Bouscaut",,44.751827,-0.549034,"",,1,,,2,,
"MOBIITI:StopPlace:70686",,"Le Luc",,45.193703,-1.067235,"",,1,,,2,,
"MOBIITI:StopPlace:70203",,"Bourg",,44.681877,-0.525455,"",,1,,,2,,
"MOBIITI:StopPlace:70687",,"La Moulineyre",,45.365360,-1.086022,"",,1,,,2,,
"MOBIITI:StopPlace:71533",,"Carreyre",,44.992123,-1.145978,"",,1,,,2,,
"MOBIITI:StopPlace:70129",,"Centre",,44.692722,-0.374419,"",,1,,,2,,
"MOBIITI:StopPlace:71462",,"Mairie","",44.908627,-0.630328,"BORDEAUX_METROPOLE:TariffZone:33056",,1,,,2,,
"MOBIITI:StopPlace:71461",,"ESAT Villambis",,45.216263,-0.853707,"",,1,,,2,,
"MOBIITI:StopPlace:70131",,"Bigueresse",,44.753262,-0.494788,"",,1,,,2,,
"MOBIITI:StopPlace:46493",,"Avenue d'Eysines","",44.859921,-0.612749,"BORDEAUX_METROPOLE:TariffZone:33063",,1,,,0,,
"MOBIITI:StopPlace:71466",,"Maison des Arts",,45.071091,-1.143732,"",,1,,,2,,
"MOBIITI:StopPlace:70134",,"Le Joucla",,44.743420,-0.485235,"",,1,,,2,,
"MOBIITI:StopPlace:71465",,"Les Bruyeres",,45.085217,-1.147967,"",,1,,,2,,
"MOBIITI:StopPlace:70135",,"Biac",,44.702347,-0.392925,"",,1,,,2,,
"MOBIITI:StopPlace:71464",,"Bourg",,45.078049,-1.046871,"",,1,,,2,,
"MOBIITI:StopPlace:71463",,"Gymnase",,45.078892,-1.041522,"",,1,,,2,,
"MOBIITI:StopPlace:70138",,"Les Camards",,44.593449,-0.250176,"",,1,,,2,,
"MOBIITI:StopPlace:71469",,"Bombannes",,45.090832,-1.147291,"",,1,,,2,,
"MOBIITI:StopPlace:71468",,"Les Sylvadoures",,45.078556,-1.145966,"",,1,,,2,,
"MOBIITI:StopPlace:70136",,"Lyc. J. Moulin",,44.547352,-0.255886,"",,1,,,2,,
"MOBIITI:StopPlace:71467",,"Cap de Ville",,45.075127,-1.073411,"",,1,,,2,,
"MOBIITI:StopPlace:70137",,"Bertric",,44.589790,-0.253994,"",,1,,,2,,
"MOBIITI:StopPlace:71473",,"Rue des Sandres",,45.062328,-1.132046,"",,1,,,2,,
"MOBIITI:StopPlace:70141",,"La Nauze",,44.581909,-0.263843,"",,1,,,2,,
"MOBIITI:StopPlace:71472",,"Le Pouch",,45.073307,-1.089864,"",,1,,,2,,
"MOBIITI:StopPlace:71471",,"Ocean",,45.082790,-1.186620,"",,1,,,2,,
"MOBIITI:StopPlace:71470",,"Maubuisson",,45.067608,-1.140620,"",,1,,,2,,
"MOBIITI:StopPlace:71477",,"Plage",,45.222656,-1.166552,"",,1,,,2,,
"MOBIITI:StopPlace:71476",,"Le Port",,45.180866,-1.083223,"",,1,,,2,,
"MOBIITI:StopPlace:70143",,"Escute",,44.759590,-0.496371,"",,1,,,2,,
"MOBIITI:StopPlace:71475",,"Camping Municipal",,45.267853,-1.159876,"",,1,,,2,,
"MOBIITI:StopPlace:71474",,"Contaut",,45.214527,-1.125578,"",,1,,,2,,
"MOBIITI:StopPlace:70147",,"Bigueresse",,44.750416,-0.492264,"",,1,,,2,,
"MOBIITI:StopPlace:71479",,"Camp. du Gurp",,45.433521,-1.144998,"",,1,,,2,,
"MOBIITI:StopPlace:71478",,"Les Ourmes",,45.182377,-1.075770,"",,1,,,2,,
"MOBIITI:StopPlace:70148",,"Monte Cristo",,44.825592,-0.535679,"",,1,,,2,,
"MOBIITI:StopPlace:70592",,"Pl. St Michel",,45.039818,-0.676297,"",,1,,,2,,
"MOBIITI:StopPlace:70593",,"Salle Fetes",,45.039249,-0.681787,"",,1,,,2,,
"MOBIITI:StopPlace:70590",,"Peseou",,45.024220,-0.685970,"",,1,,,2,,
"MOBIITI:StopPlace:70591",,"Les Eycards",,45.029556,-0.699181,"",,1,,,2,,
"MOBIITI:StopPlace:70596",,"Le Fief",,45.034641,-0.699174,"",,1,,,2,,
"MOBIITI:StopPlace:70597",,"Planque St Blaise",,45.037563,-0.696912,"",,1,,,2,,
"MOBIITI:StopPlace:70594",,"Bertranot",,44.957783,-0.664236,"",,1,,,2,,
"MOBIITI:StopPlace:70110",,"Bouit",,44.672279,-0.344554,"",,1,,,2,,
"MOBIITI:StopPlace:70595",,"J.J. Rousseau",,44.955112,-0.659297,"",,1,,,2,,
"MOBIITI:StopPlace:71441",,"Cinq Chemins","",44.861042,-0.695629,"BORDEAUX_METROPOLE:TariffZone:33200",,1,,,2,,
"MOBIITI:StopPlace:71448",,"Dassault Aviation","",44.847912,-0.692077,"BORDEAUX_METROPOLE:TariffZone:33281",,1,,,2,,
"MOBIITI:StopPlace:70116",,"Centre",,44.707962,-0.401213,"",,1,,,2,,
"MOBIITI:StopPlace:70117",,"Le Rouquey",,44.717876,-0.417931,"",,1,,,2,,
"MOBIITI:StopPlace:70598",,"rue du Fief 2A",,45.037205,-0.700073,"",,1,,,2,,
"MOBIITI:StopPlace:70114",,"Mounet",,44.593788,-0.275406,"",,1,,,2,,
"MOBIITI:StopPlace:70599",,"Tayac",,45.058891,-0.716261,"",,1,,,2,,
"MOBIITI:StopPlace:70115",,"Labat",,44.595509,-0.269591,"",,1,,,2,,
"MOBIITI:StopPlace:70118",,"Bourg",,44.755951,-0.488447,"",,1,,,2,,
"MOBIITI:StopPlace:71449",,"Pl. de la Liberte",,45.196335,-0.749217,"",,1,,,2,,
"MOBIITI:StopPlace:70119",,"Ets Scolaires",,44.547611,-0.251756,"",,1,,,2,,
"MOBIITI:StopPlace:71451",,"Hotel de Ville",,45.199753,-0.745947,"",,1,,,2,,
"MOBIITI:StopPlace:71450",,"Bages",,45.190746,-0.749475,"",,1,,,2,,
"MOBIITI:StopPlace:46043",,"Collège L. Lenoir",,44.840508,-0.553321,"BORDEAUX_METROPOLE:TariffZone:33063",,1,,,0,,
"MOBIITI:StopPlace:70120",,"Esconac",,44.739357,-0.480857,"",,1,,,2,,
"MOBIITI:StopPlace:71455",,"La Mouline",,45.156700,-0.738934,"",,1,,,2,,
"MOBIITI:StopPlace:70123",,"La Chapelle",,44.647900,-0.327489,"",,1,,,2,,
"MOBIITI:StopPlace:71454",,"Republique",,44.908844,-0.631404,"BORDEAUX_METROPOLE:TariffZone:33056",,1,,,2,,
"MOBIITI:StopPlace:70124",,"Pl. Lattre de Tassigny",,44.635857,-0.321007,"",,1,,,2,,
"MOBIITI:StopPlace:71453",,"Ford Sud","",44.911026,-0.607640,"BORDEAUX_METROPOLE:TariffZone:33056",,1,,,2,,
"MOBIITI:StopPlace:70121",,"Le Joucla",,44.744797,-0.486450,"",,1,,,2,,
"MOBIITI:StopPlace:71452",,"General de Gaulle","",44.908974,-0.638669,"BORDEAUX_METROPOLE:TariffZone:33056",,1,,,2,,
"MOBIITI:StopPlace:70122",,"Centre",,44.644001,-0.322959,"",,1,,,2,,
"MOBIITI:StopPlace:71459",,"Palais des Congres",,44.889221,-0.567060,"",,1,,,2,,
"MOBIITI:StopPlace:71458",,"Parc des Expositions",,44.895298,-0.565670,"BORDEAUX_METROPOLE:TariffZone:33063",,1,,,2,,
"MOBIITI:StopPlace:70128",,"Damanieu",,44.687916,-0.322318,"",,1,,,2,,
"MOBIITI:StopPlace:71457",,"Gare TER",,45.203693,-0.754817,"",,1,,,2,,
"MOBIITI:StopPlace:70125",,"Res. Lamothe",,44.630249,-0.309594,"",,1,,,2,,
"MOBIITI:StopPlace:71456",,"Le Bourdieu",,45.145424,-0.736171,"",,1,,,2,,
"MOBIITI:StopPlace:70126",,"Bourg",,44.732498,-0.465213,"",,1,,,2,,
"MOBIITI:StopPlace:46058",,"La Tresne",,44.840782,-0.550315,"BORDEAUX_METROPOLE:TariffZone:33063",,1,,,0,,
"MOBIITI:StopPlace:66902",,"Bellevue","",44.732327,-0.666359,"",,1,,,0,,
"MOBIITI:StopPlace:70170",,"Le Livran",,44.722713,-0.589288,"",,1,,,2,,
"MOBIITI:StopPlace:70171",,"Le Bicon",,44.752281,-0.587946,"",,1,,,2,,
"MOBIITI:StopPlace:70174",,"La Bouhume",,44.738167,-0.596049,"",,1,,,2,,
"MOBIITI:StopPlace:71022",,"Guimberteau",,44.954662,-0.099246,"",,1,,,2,,
"MOBIITI:StopPlace:70175",,"Bourg",,44.728729,-0.599854,"",,1,,,2,,
"MOBIITI:StopPlace:71021",,"Siaurac",,44.942951,-0.171878,"",,1,,,2,,
"MOBIITI:StopPlace:70172",,"Pireques",,44.741322,-0.596945,"",,1,,,2,,
"MOBIITI:StopPlace:71020",,"Bourg",,44.947773,0.056049,"",,1,,,2,,
"MOBIITI:StopPlace:47384",,"Les Pins","arrêt de descente",44.856651,-0.659285,"BORDEAUX_METROPOLE:TariffZone:33281",,1,,,0,,
"MOBIITI:StopPlace:70173",,"Clair Bois",,44.734394,-0.606039,"",,1,,,2,,
"MOBIITI:StopPlace:70178",,"Centre Commercial",,44.747253,-0.591124,"",,1,,,2,,
"MOBIITI:StopPlace:71026",,"Bourg",,44.971733,0.038037,"",,1,,,2,,
"MOBIITI:StopPlace:70176",,"Luxeau",,44.732529,-0.599894,"",,1,,,2,,
"MOBIITI:StopPlace:71024",,"Cité rue du Val",,44.980377,-0.060736,"",,1,,,2,,
"MOBIITI:StopPlace:70177",,"Le Luc",,44.745701,-0.594086,"",,1,,,2,,
"MOBIITI:StopPlace:71023",,"Terrien Bourdil",,44.963173,-0.087723,"",,1,,,2,,
"MOBIITI:StopPlace:71029",,"Mirande",,44.937538,-0.122368,"",,1,,,2,,
"MOBIITI:StopPlace:71028",,"Baudron",,44.941811,-0.116733,"",,1,,,2,,
"MOBIITI:StopPlace:71027",,"Les Landes",,44.950790,-0.149098,"",,1,,,2,,
"MOBIITI:StopPlace:70181",,"Lyc. A. Kastler",,44.803547,-0.600351,"",,1,,,2,,
"MOBIITI:StopPlace:70182",,"Gendarmerie",,44.734852,-0.598728,"",,1,,,2,,
"MOBIITI:StopPlace:71033",,"Les Arriails",,44.934834,-0.126514,"",,1,,,2,,
"MOBIITI:StopPlace:70185",,"Armingas",,44.673012,-0.519321,"",,1,,,2,,
"MOBIITI:StopPlace:71032",,"Maison Blanche",,44.930328,-0.158775,"",,1,,,2,,
"MOBIITI:StopPlace:70183",,"Av. Capdeville",,44.686928,-0.536312,"",,1,,,2,,
"MOBIITI:StopPlace:71031",,"Plaisance",,44.929180,-0.162177,"",,1,,,2,,
"MOBIITI:StopPlace:70184",,"Coudougney",,44.685738,-0.519539,"",,1,,,2,,
"MOBIITI:StopPlace:71030",,"Bourg",,44.930336,-0.129320,"",,1,,,2,,
"MOBIITI:StopPlace:71037",,"Cave Cooperative",,44.936356,-0.071817,"",,1,,,2,,
"MOBIITI:StopPlace:71036",,"La Dominique",,44.925358,-0.189541,"",,1,,,2,,
"MOBIITI:StopPlace:71035",,"Blanchon",,44.947151,-0.084343,"",,1,,,2,,
"MOBIITI:StopPlace:70187",,"Rue Truchon 1081",,44.745537,-0.543027,"",,1,,,2,,
"MOBIITI:StopPlace:70188",,"Clair Bois",,44.732422,-0.607845,"",,1,,,2,,
"MOBIITI:StopPlace:71034",,"Bertin",,44.935917,-0.137252,"",,1,,,2,,
"MOBIITI:StopPlace:71039",,"College",,44.949692,-0.099471,"",,1,,,2,,
"MOBIITI:StopPlace:71038",,"Le Rival",,44.949066,-0.108995,"",,1,,,2,,
"MOBIITI:StopPlace:43800",,"Foyer Municipal",,44.891747,-0.502828,"BORDEAUX_METROPOLE:TariffZone:33096",,1,,,0,,
"MOBIITI:StopPlace:66923",,"Mairie de St Jean d'Illac","",44.811184,-0.781880,"",,1,,,0,,
"MOBIITI:StopPlace:71480",,"Ste Catherine",,45.311550,-0.939498,"",,1,,,2,,
"MOBIITI:StopPlace:46070",,"Boulevard Trarieux",,44.841591,-0.546417,"BORDEAUX_METROPOLE:TariffZone:33063",,1,,,0,,
"MOBIITI:StopPlace:70152",,"Chat. d'Eau",,44.691536,-0.335345,"",,1,,,2,,
"MOBIITI:StopPlace:71484",,"Bld Foch",,45.377197,-1.148906,"",,1,,,2,,
"MOBIITI:StopPlace:71000",,"Mairie",,44.981441,-0.064500,"",,1,,,2,,
"MOBIITI:StopPlace:70153",,"Aerocampus",,44.781925,-0.495315,"",,1,,,2,,
"MOBIITI:StopPlace:71483",,"Euronat",,45.415733,-1.129434,"",,1,,,2,,
"MOBIITI:StopPlace:71482",,"Centre Helio Marin",,45.363785,-1.145392,"",,1,,,2,,
"MOBIITI:StopPlace:70150",,"Pinel",,44.824642,-0.521439,"BORDEAUX_METROPOLE:TariffZone:33167",,1,,,2,,
"MOBIITI:StopPlace:71481",,"Camping Campeole",,45.369900,-1.144727,"",,1,,,2,,
"MOBIITI:StopPlace:70151",,"Centre",,44.829357,-0.528433,"",,1,,,2,,
"MOBIITI:StopPlace:71488",,"Le Blanc",,45.364323,-1.031368,"",,1,,,2,,
"MOBIITI:StopPlace:71004",,"Le Meillac",,44.992241,0.017169,"",,1,,,2,,
"MOBIITI:StopPlace:70156",,"Mairie",,44.614876,-0.268464,"",,1,,,2,,
"MOBIITI:StopPlace:71487",,"Camping Municipal",,45.385868,-1.152461,"",,1,,,2,,
"MOBIITI:StopPlace:71003",,"Eglise",,44.982525,-0.002242,"",,1,,,2,,
"MOBIITI:StopPlace:70157",,"Peynon",,44.607010,-0.242893,"",,1,,,2,,
"MOBIITI:StopPlace:70154",,"Chem. de Coulon",,44.798470,-0.502068,"",,1,,,2,,
"MOBIITI:StopPlace:71486",,"Atlantic Club",,45.351833,-1.146151,"",,1,,,2,,
"MOBIITI:StopPlace:71002",,"Villatte",,44.983974,0.004833,"",,1,,,2,,
"MOBIITI:StopPlace:71485",,"Hotel de Ville",,45.305386,-0.936082,"",,1,,,2,,
"MOBIITI:StopPlace:71001",,"Le Grand Maine",,44.964367,0.047290,"",,1,,,2,,
"MOBIITI:StopPlace:70155",,"La Motte",,44.617165,-0.246661,"",,1,,,2,,
"MOBIITI:StopPlace:71008",,"Le Cros",,44.962215,-0.102346,"",,1,,,2,,
"MOBIITI:StopPlace:71007",,"Mayne Blanc",,44.975029,-0.090284,"",,1,,,2,,
"MOBIITI:StopPlace:71006",,"Bel Air",,44.979244,-0.091352,"",,1,,,2,,
"MOBIITI:StopPlace:70158",,"Eglise",,44.593693,-0.282202,"",,1,,,2,,
"MOBIITI:StopPlace:71489",,"Vieux Soulac",,45.511017,-1.114648,"",,1,,,2,,
"MOBIITI:StopPlace:71005",,"Eglise",,44.992428,0.020837,"",,1,,,2,,
"MOBIITI:StopPlace:71009",,"Moulin Gaillard",,44.966213,-0.148580,"",,1,,,2,,
"MOBIITI:StopPlace:71491",,"Les Tourterelles",,45.525459,-1.107028,"",,1,,,2,,
"MOBIITI:StopPlace:71490",,"Le Royannais",,45.540710,-1.092532,"",,1,,,2,,
"MOBIITI:StopPlace:70160",,"Crabitan",,44.603909,-0.277332,"",,1,,,2,,
"MOBIITI:StopPlace:70163",,"Bourg",,44.725304,-0.438591,"",,1,,,2,,
"MOBIITI:StopPlace:71495",,"Cimetiere",,45.514462,-1.113791,"",,1,,,2,,
"MOBIITI:StopPlace:71011",,"Bourg",,44.950603,-0.096776,"",,1,,,2,,
"MOBIITI:StopPlace:70164",,"Le Bridat",,44.722626,-0.428568,"",,1,,,2,,
"MOBIITI:StopPlace:71494",,"Aérodrome",,45.496902,-1.076638,"",,1,,,2,,
"MOBIITI:StopPlace:71010",,"Malydure",,44.971615,-0.107906,"",,1,,,2,,
"MOBIITI:StopPlace:70161",,"Le Peyrat",,44.595470,-0.288592,"",,1,,,2,,
"MOBIITI:StopPlace:71493",,"La Croix",,45.396454,-1.037209,"",,1,,,2,,
"MOBIITI:StopPlace:71492",,"Le Logis",,45.552681,-1.065557,"",,1,,,2,,
"MOBIITI:StopPlace:70162",,"Larrivat",,44.600941,-0.281561,"",,1,,,2,,
"MOBIITI:StopPlace:71015",,"Les Grands Jays",,44.977520,-0.129789,"",,1,,,2,,
"MOBIITI:StopPlace:71499",,"Le Lilhan",,45.486237,-1.120199,"",,1,,,2,,
"MOBIITI:StopPlace:71014",,"Bourg",,44.971691,-0.140068,"",,1,,,2,,
"MOBIITI:StopPlace:71013",,"Les Petits Jays",,44.975655,-0.133254,"",,1,,,2,,
"MOBIITI:StopPlace:70165",,"Lardin",,44.595539,-0.264465,"",,1,,,2,,
"MOBIITI:StopPlace:71012",,"Grezard",,44.980793,-0.117760,"",,1,,,2,,
"MOBIITI:StopPlace:71496",,"Embarcadère",,45.098530,-0.695288,"",,1,,,2,,
"MOBIITI:StopPlace:71019",,"Petit Maine",,44.949608,0.055891,"",,1,,,2,,
"MOBIITI:StopPlace:71017",,"Normand",,44.955044,-0.093231,"",,1,,,2,,
"MOBIITI:StopPlace:71016",,"Gazin",,44.931293,-0.190219,"",,1,,,2,,
"MOBIITI:StopPlace:71062",,"Truquet",,44.909145,-0.202099,"",,1,,,2,,
"MOBIITI:StopPlace:71061",,"Taillas",,44.910034,-0.210774,"",,1,,,2,,
"MOBIITI:StopPlace:71060",,"Vergne",,44.954239,-0.017085,"",,1,,,2,,
"MOBIITI:StopPlace:71066",,"Puy Fromage",,44.941189,-0.024316,"",,1,,,2,,
"MOBIITI:StopPlace:71065",,"Le Gros Buisson",,44.927025,-0.030385,"",,1,,,2,,
"MOBIITI:StopPlace:71064",,"Pourret",,44.901901,-0.167563,"",,1,,,2,,
"MOBIITI:StopPlace:71063",,"La Croix Figeac",,44.909702,-0.183660,"",,1,,,2,,
"MOBIITI:StopPlace:71069",,"Haut Sarpe",,44.895882,-0.139827,"",,1,,,2,,
"MOBIITI:StopPlace:71068",,"Rocheyron",,44.891552,-0.110900,"",,1,,,2,,
"MOBIITI:StopPlace:71067",,"Mairie",,44.939823,-0.023131,"",,1,,,2,,
"MOBIITI:StopPlace:71073",,"La Font St Martin",,44.797321,-0.004227,"",,1,,,2,,
"MOBIITI:StopPlace:71072",,"Savoye",,44.792522,0.074486,"",,1,,,2,,
"MOBIITI:StopPlace:71071",,"Bourg",,44.803986,0.071520,"",,1,,,2,,
"MOBIITI:StopPlace:71070",,"La Devise",,44.800568,-0.020402,"",,1,,,2,,
"MOBIITI:StopPlace:71077",,"Parc des Sports","",44.908833,-0.235372,"",,1,,,2,,
"MOBIITI:StopPlace:71076",,"La Flamengue",,44.823513,-0.042778,"",,1,,,2,,
"MOBIITI:StopPlace:71075",,"Villemartin",,44.834534,-0.038522,"",,1,,,2,,
"MOBIITI:StopPlace:71074",,"La Grenouillette",,44.744778,0.075841,"",,1,,,2,,
"MOBIITI:StopPlace:71079",,"Cantenac",,44.894066,-0.200639,"",,1,,,2,,
"MOBIITI:StopPlace:71078",,"L'Esperance",,44.797523,0.024034,"",,1,,,2,,
"MOBIITI:StopPlace:70192",,"Bel Air",,44.741795,-0.617645,"",,1,,,2,,
"MOBIITI:StopPlace:71040",,"La Pointe de l'Evangile",,44.924614,-0.193809,"",,1,,,2,,
"MOBIITI:StopPlace:70193",,"Bourg",,44.713627,-0.542849,"",,1,,,2,,
"MOBIITI:StopPlace:71044",,"Gare",,44.926517,-0.075671,"",,1,,,2,,
"MOBIITI:StopPlace:70196",,"Rte de la Haille",,44.741154,-0.550209,"",,1,,,2,,
"MOBIITI:StopPlace:71043",,"Longues Reges",,44.930050,-0.077465,"",,1,,,2,,
"MOBIITI:StopPlace:71042",,"Corbin",,44.922951,-0.177037,"",,1,,,2,,
"MOBIITI:StopPlace:70194",,"Carr. la Morelle",,44.727737,-0.548915,"",,1,,,2,,
"MOBIITI:StopPlace:71041",,"Le Jura",,44.924809,-0.167779,"",,1,,,2,,
"MOBIITI:StopPlace:70195",,"Cimetiere",,44.716022,-0.542554,"",,1,,,2,,
"MOBIITI:StopPlace:71048",,"Bourg",,44.945408,-0.006480,"",,1,,,2,,
"MOBIITI:StopPlace:71047",,"Beausejour",,44.933887,-0.130936,"",,1,,,2,,
"MOBIITI:StopPlace:70198",,"La Cave",,44.709923,-0.549291,"",,1,,,2,,
"MOBIITI:StopPlace:71046",,"St Georges",,44.931328,-0.146861,"",,1,,,2,,
"MOBIITI:StopPlace:71045",,"Roques",,44.945175,-0.073523,"",,1,,,2,,
"MOBIITI:StopPlace:70199",,"Haut Tartavisat",,44.708694,-0.555604,"",,1,,,2,,
"MOBIITI:StopPlace:71049",,"Cave Cooperative",,44.903011,-0.032772,"",,1,,,2,,
"MOBIITI:StopPlace:43859",,"Carré","",44.898052,-0.210007,"",,1,,,0,,
"MOBIITI:StopPlace:71051",,"Tour Pressac",,44.886707,-0.084889,"",,1,,,2,,
"MOBIITI:StopPlace:71050",,"Les Faures",,44.893429,-0.043774,"",,1,,,2,,
"MOBIITI:StopPlace:71055",,"Bourg",,44.914005,-0.030862,"",,1,,,2,,
"MOBIITI:StopPlace:71054",,"Bourg",,44.897800,-0.062739,"",,1,,,2,,
"MOBIITI:StopPlace:71053",,"L'Epinette","",44.914185,-0.231248,"",,1,,,2,,
"MOBIITI:StopPlace:71052",,"Peyblanquet",,44.888397,-0.096369,"",,1,,,2,,
"MOBIITI:StopPlace:71059",,"Bourg",,44.953377,-0.010052,"",,1,,,2,,
"MOBIITI:StopPlace:71058",,"Le Canton",,44.932426,-0.030737,"",,1,,,2,,
"MOBIITI:StopPlace:71057",,"Michel de Bos",,44.945827,-0.024921,"",,1,,,2,,
"MOBIITI:StopPlace:71056",,"Pimpine",,44.938065,-0.027960,"",,1,,,2,,
"MOBIITI:StopPlace:71080",,"Centre",,44.807144,-0.031274,"",,1,,,2,,
"MOBIITI:StopPlace:71084",,"Fonsalade",,44.798229,0.011210,"",,1,,,2,,
"MOBIITI:StopPlace:71083",,"Plaisance",,44.805363,0.038555,"",,1,,,2,,
"MOBIITI:StopPlace:71082",,"Grand Barry",,44.827496,-0.042508,"",,1,,,2,,
"MOBIITI:StopPlace:71081",,"La Riviere",,44.817898,-0.039301,"",,1,,,2,,
"MOBIITI:StopPlace:71088",,"Villeseque",,44.778835,-0.112043,"",,1,,,2,,
"MOBIITI:StopPlace:71087",,"Cimetiere",,44.694191,-0.088829,"",,1,,,2,,
"MOBIITI:StopPlace:71086",,"Mairie",,44.778896,-0.124583,"",,1,,,2,,
"MOBIITI:StopPlace:71085",,"Mondon",,44.807846,-0.136878,"",,1,,,2,,
"MOBIITI:StopPlace:71089",,"Couleau",,44.790611,-0.118861,"",,1,,,2,,
"MOBIITI:StopPlace:71091",,"Porte de St Leger",,44.695278,-0.082569,"",,1,,,2,,
"MOBIITI:StopPlace:71090",,"Bourg",,44.749359,-0.074954,"",,1,,,2,,
"MOBIITI:StopPlace:71094",,"Gaby",,44.930531,-0.278041,"",,1,,,2,,
"MOBIITI:StopPlace:71092",,"Gendarmerie",,44.692261,-0.083907,"",,1,,,2,,
"MOBIITI:StopPlace:71099",,"Bourg",,44.966488,-0.308044,"",,1,,,2,,
"MOBIITI:StopPlace:71098",,"Colin",,44.969055,-0.314944,"",,1,,,2,,
"MOBIITI:StopPlace:45723",,"André Ricard",,44.859627,-0.539774,"BORDEAUX_METROPOLE:TariffZone:33119",,1,,,0,,
"MOBIITI:StopPlace:45720",,"Lajaunie","",44.856853,-0.547949,"BORDEAUX_METROPOLE:TariffZone:33063",,1,,,0,,
"MOBIITI:StopPlace:70700",,"Chem. de Crabot",,45.435532,-1.051832,"",,1,,,2,,
"MOBIITI:StopPlace:69714",,"Le Pin",,44.917439,-0.350298,"",,1,,,2,,
"MOBIITI:StopPlace:69715",,"Eglise","",44.920898,-0.365989,"",,1,,,2,,
"MOBIITI:StopPlace:69716",,"L'Intendant Nord",,44.878994,-0.383487,"",,1,,,2,,
"MOBIITI:StopPlace:69717",,"Les Hauts de Beychac",,44.881981,-0.401958,"",,1,,,2,,
"MOBIITI:StopPlace:69718",,"Boutin",,44.862263,-0.369193,"",,1,,,2,,
"MOBIITI:StopPlace:69719",,"Rte de Lartigue",,44.876564,-0.396931,"",,1,,,2,,
"MOBIITI:StopPlace:69710",,"Mairie",,44.870541,-0.371596,"",,1,,,2,,
"MOBIITI:StopPlace:69713",,"Graney",,44.914955,-0.340391,"",,1,,,2,,
"MOBIITI:StopPlace:69703",,"Bourg",,44.917202,-0.428828,"",,1,,,2,,
"MOBIITI:StopPlace:69704",,"Jean Videau",,44.919514,-0.439393,"",,1,,,2,,
"MOBIITI:StopPlace:69705",,"Le Paradis",,44.911339,-0.326048,"",,1,,,2,,
"MOBIITI:StopPlace:69708",,"Bourg",,44.880527,-0.461688,"",,1,,,2,,
"MOBIITI:StopPlace:69709",,"L'Intendant",,44.877605,-0.376341,"",,1,,,2,,
"MOBIITI:StopPlace:69700",,"L'Olivey",,44.915775,-0.420402,"",,1,,,2,,
"MOBIITI:StopPlace:69701",,"Les Graves",,44.915108,-0.416689,"",,1,,,2,,
"MOBIITI:StopPlace:70725",,"Bourgueyraud",,45.313988,-0.957110,"",,1,,,2,,
"MOBIITI:StopPlace:46617",,"Auriol",,44.840736,-0.684808,"BORDEAUX_METROPOLE:TariffZone:33281",,1,,,0,,
"MOBIITI:StopPlace:69736",,"Chem. de Granger",,45.000031,-0.435213,"",,1,,,2,,
"MOBIITI:StopPlace:70726",,"Peyressan",,45.316612,-0.839709,"",,1,,,2,,
"MOBIITI:StopPlace:70723",,"BLAIGNAN_stade",,45.321075,-0.880832,"",,1,,,2,,
"MOBIITI:StopPlace:69738",,"Gastineau",,44.989471,-0.423603,"",,1,,,2,,
"MOBIITI:StopPlace:64046",,"Place des 2 Villes",,44.864326,-0.519438,"BORDEAUX_METROPOLE:TariffZone:33249",,1,,,0,,
"MOBIITI:StopPlace:70724",,"Rte du Petit Moulin",,45.335815,-0.983161,"",,1,,,2,,
"MOBIITI:StopPlace:46614",,"Diesel",,44.836872,-0.686951,"BORDEAUX_METROPOLE:TariffZone:33281",,1,,,0,,
"MOBIITI:StopPlace:69739",,"Millardet",,44.997486,-0.433101,"",,1,,,2,,
"MOBIITI:StopPlace:70729",,"Le Sablonat",,45.348415,-0.823840,"",,1,,,2,,
"MOBIITI:StopPlace:70727",,"Lussan",,45.299252,-0.839194,"",,1,,,2,,
"MOBIITI:StopPlace:70728",,"Rouman 6 Bis",,45.310947,-1.005748,"",,1,,,2,,
"MOBIITI:StopPlace:69730",,"L'Orme",,44.863220,-0.373114,"",,1,,,2,,
"MOBIITI:StopPlace:69731",,"Beychac",,44.874535,-0.396682,"",,1,,,2,,
"MOBIITI:StopPlace:69732",,"La Barrade",,44.881290,-0.370148,"",,1,,,2,,
"MOBIITI:StopPlace:69733",,"Fosses Longues",,44.870937,-0.350707,"",,1,,,2,,
"MOBIITI:StopPlace:45763",,"Collège A. Mauguin",,44.772762,-0.596766,"BORDEAUX_METROPOLE:TariffZone:33192",,1,,,0,,
"MOBIITI:StopPlace:69735",,"Res. Paul Valery",,44.988697,-0.431447,"",,1,,,2,,
"MOBIITI:StopPlace:70732",,"Artiguillon",,45.272480,-0.886331,"",,1,,,2,,
"MOBIITI:StopPlace:70733",,"Blanc",,45.309303,-1.001168,"",,1,,,2,,
"MOBIITI:StopPlace:70730",,"Plautignan",,45.305481,-0.851659,"",,1,,,2,,
"MOBIITI:StopPlace:70731",,"Taudinet",,45.311127,-0.963130,"",,1,,,2,,
"MOBIITI:StopPlace:70736",,"Le Placet",,45.313194,-0.962012,"",,1,,,2,,
"MOBIITI:StopPlace:69725",,"Lot. Marty",,44.872295,-0.375260,"",,1,,,2,,
"MOBIITI:StopPlace:70737",,"Bourg",,45.355518,-0.825618,"",,1,,,2,,
"MOBIITI:StopPlace:46627",,"Collège F. Mauriac","",44.895496,-0.709661,"BORDEAUX_METROPOLE:TariffZone:33449",,1,,,0,,
"MOBIITI:StopPlace:69726",,"Rte de l'Eglise",,44.877850,-0.400504,"",,1,,,2,,
"MOBIITI:StopPlace:45778",,"Tauzin",,44.821217,-0.601938,"BORDEAUX_METROPOLE:TariffZone:33063",,1,,,0,,
"MOBIITI:StopPlace:70734",,"Coudessan",,45.336456,-0.994015,"",,1,,,2,,
"MOBIITI:StopPlace:69727",,"Zone du Lapin",,44.878414,-0.347982,"",,1,,,2,,
"MOBIITI:StopPlace:70735",,"Lande Basse",,45.292576,-0.965617,"",,1,,,2,,
"MOBIITI:StopPlace:69728",,"Hurey",,44.869747,-0.355961,"",,1,,,2,,
"MOBIITI:StopPlace:70738",,"Biail",,45.341484,-0.980429,"",,1,,,2,,
"MOBIITI:StopPlace:70739",,"Pey Broustera",,45.312943,-0.979529,"",,1,,,2,,
"MOBIITI:StopPlace:45772",,"Avenue de l'Université","",44.801266,-0.594639,"BORDEAUX_METROPOLE:TariffZone:33522",,1,,,0,,
"MOBIITI:StopPlace:69720",,"Coll. M. Duras",,44.902557,-0.235412,"",,1,,,2,,
"MOBIITI:StopPlace:45777",,"Lycée Hôtelier","",44.795654,-0.592404,"BORDEAUX_METROPOLE:TariffZone:33522",,1,,,0,,
"MOBIITI:StopPlace:69722",,"Coll. J. Auriac",,44.883064,-0.285242,"",,1,,,2,,
"MOBIITI:StopPlace:69723",,"Senau",,44.882732,-0.310642,"",,1,,,2,,
"MOBIITI:StopPlace:69724",,"Grand Cazau",,44.881531,-0.343082,"",,1,,,2,,
"MOBIITI:StopPlace:70740",,"Bourg",,45.321434,-0.956452,"",,1,,,2,,
"MOBIITI:StopPlace:70744",,"Virefougasse",,45.037506,-0.700373,"",,1,,,2,,
"MOBIITI:StopPlace:70741",,"Luc Blanc",,45.298676,-0.971593,"",,1,,,2,,
"MOBIITI:StopPlace:70742",,"Rte du Bois de Brulle",,45.081917,-0.750494,"",,1,,,2,,
"MOBIITI:StopPlace:70703",,"Le Palena",,45.360386,-0.929147,"",,1,,,2,,
"MOBIITI:StopPlace:69758",,"Patoche",,45.004883,-0.446917,"",,1,,,2,,
"MOBIITI:StopPlace:70704",,"Meillan",,45.356758,-0.927352,"",,1,,,2,,
"MOBIITI:StopPlace:69759",,"Le Tasta",,45.003624,-0.443213,"",,1,,,2,,
"MOBIITI:StopPlace:45789",,"Lycée Kastler","",44.801170,-0.596983,"BORDEAUX_METROPOLE:TariffZone:33522",,1,,,0,,
"MOBIITI:StopPlace:70701",,"Le Sablona",,45.352585,-0.928945,"",,1,,,2,,
"MOBIITI:StopPlace:70702",,"La Lande",,45.345917,-0.884387,"",,1,,,2,,
"MOBIITI:StopPlace:70707",,"La Metairie",,45.339260,-0.911195,"",,1,,,2,,
"MOBIITI:StopPlace:70708",,"Carr. des Ourmes",,45.339516,-1.006663,"",,1,,,2,,
"MOBIITI:StopPlace:70705",,"Rt Moulin Bourdieu 17",,45.352535,-0.908378,"",,1,,,2,,
"MOBIITI:StopPlace:70706",,"Bourg",,45.337666,-0.897573,"",,1,,,2,,
"MOBIITI:StopPlace:45783",,"Arts et Métiers","",44.805202,-0.600521,"BORDEAUX_METROPOLE:TariffZone:33522",,1,,,2,,
"MOBIITI:StopPlace:69750",,"Intermarche",,44.995605,-0.440060,"",,1,,,2,,
"MOBIITI:StopPlace:69751",,"Max Linder","",44.917255,-0.240511,"",,1,,,2,,
"MOBIITI:StopPlace:70709",,"La Hontane 2",,45.373016,-0.987687,"",,1,,,2,,
"MOBIITI:StopPlace:69753",,"Ecole S. Lacore",,44.995659,-0.434797,"",,1,,,2,,
"MOBIITI:StopPlace:45787",,"Bordeaux Carreire","",44.826588,-0.600742,"BORDEAUX_METROPOLE:TariffZone:33063",,1,,,0,,
"MOBIITI:StopPlace:69754",,"Chem. du Rivet",,44.985149,-0.411279,"",,1,,,2,,
"MOBIITI:StopPlace:69755",,"Lot les Fougeres",,45.004211,-0.437850,"",,1,,,2,,
"MOBIITI:StopPlace:45785",,"Réservoir Lavardens","",44.818180,-0.602727,"BORDEAUX_METROPOLE:TariffZone:33063",,1,,,0,,
"MOBIITI:StopPlace:46632",,"La Renney","",44.911732,-0.624894,"BORDEAUX_METROPOLE:TariffZone:33056",,1,,,0,,
"MOBIITI:StopPlace:70710",,"Bourg",,45.362762,-0.977028,"",,1,,,2,,
"MOBIITI:StopPlace:70711",,"Res. la Chenaie",,45.498962,-1.119455,"",,1,,,2,,
"MOBIITI:StopPlace:70714",,"Passe de Pechaud",,45.468307,-1.117459,"",,1,,,2,,
"MOBIITI:StopPlace:69747",,"Fontboudeau",,44.998547,-0.437632,"",,1,,,2,,
"MOBIITI:StopPlace:70715",,"Queyzac",,45.347813,-0.998578,"",,1,,,2,,
"MOBIITI:StopPlace:69748",,"Clos St Martin",,45.000050,-0.433456,"",,1,,,2,,
"MOBIITI:StopPlace:70712",,"Caussan",,45.322170,-0.877608,"",,1,,,2,,
"MOBIITI:StopPlace:70713",,"Freres Lumiere",,45.487400,-1.120745,"",,1,,,2,,
"MOBIITI:StopPlace:70718",,"Centre",,45.408691,-0.958578,"",,1,,,2,,
"MOBIITI:StopPlace:70719",,"La Hourcade",,45.422035,-0.981152,"",,1,,,2,,
"MOBIITI:StopPlace:70716",,"Loirac",,45.397873,-0.965703,"",,1,,,2,,
"MOBIITI:StopPlace:70717",,"Port de Richard",,45.417274,-0.927530,"",,1,,,2,,
"MOBIITI:StopPlace:69742",,"Pont du Mulet",,45.006962,-0.396334,"",,1,,,2,,
"MOBIITI:StopPlace:69743",,"La Rousse",,44.987938,-0.403796,"",,1,,,2,,
"MOBIITI:StopPlace:69744",,"Lycée Privé Ste Marie","STAM",44.986732,-0.437943,"",,1,,,2,,
"MOBIITI:StopPlace:70722",,"Dignac",,45.414295,-0.946933,"",,1,,,2,,
"MOBIITI:StopPlace:70720",,"Jau",,45.417641,-0.973597,"",,1,,,2,,
"MOBIITI:StopPlace:71617",,"Puy Faure",,45.020065,-0.393671,"",,1,,,2,,
"MOBIITI:StopPlace:70769",,"St Gaux",,45.263809,-0.906630,"",,1,,,2,,
"MOBIITI:StopPlace:71616",,"Chem. Vieux Plantie",,45.009609,-0.404661,"",,1,,,2,,
"MOBIITI:StopPlace:70767",,"Bourg",,45.151356,-0.822355,"",,1,,,2,,
"MOBIITI:StopPlace:71615",,"Savarias","",45.023865,-0.364849,"",,1,,,2,,
"MOBIITI:StopPlace:70768",,"Coll. P. de Belleyme",,45.202011,-0.750554,"",,1,,,2,,
"MOBIITI:StopPlace:71614",,"Beaucourt",,45.020721,-0.391130,"",,1,,,2,,
"MOBIITI:StopPlace:69772",,"Villemaurine",,44.896412,-0.150520,"",,1,,,2,,
"MOBIITI:StopPlace:69773",,"Bourg",,44.872147,-0.126897,"",,1,,,2,,
"MOBIITI:StopPlace:69774",,"Bourg",,44.880245,-0.061154,"",,1,,,2,,
"MOBIITI:StopPlace:69775",,"Bourg",,44.895775,-0.124448,"",,1,,,2,,
"MOBIITI:StopPlace:69776",,"Croix Fourche",,44.869793,-0.187854,"",,1,,,2,,
"MOBIITI:StopPlace:69777",,"Foyer communal",,44.875992,-0.190544,"",,1,,,2,,
"MOBIITI:StopPlace:69778",,"Les Bigaroux",,44.879673,-0.167939,"",,1,,,2,,
"MOBIITI:StopPlace:69779",,"Pierrefitte",,44.887928,-0.201632,"",,1,,,2,,
"MOBIITI:StopPlace:69770",,"Eglise",,44.878357,-0.069780,"",,1,,,2,,
"MOBIITI:StopPlace:69771",,"Bourg",,44.896072,-0.155554,"",,1,,,2,,
"MOBIITI:StopPlace:70772",,"Rue du Vieux Chene",,45.097980,-0.722504,"",,1,,,2,,
"MOBIITI:StopPlace:71620",,"Carr. RD248 RD10",,45.001644,-0.423875,"",,1,,,2,,
"MOBIITI:StopPlace:70773",,"Sieujean",,45.157639,-0.806378,"",,1,,,2,,
"MOBIITI:StopPlace:70770",,"Bourg",,45.095177,-0.720207,"",,1,,,2,,
"MOBIITI:StopPlace:70771",,"Poignet",,45.090679,-0.724498,"",,1,,,2,,
"MOBIITI:StopPlace:70776",,"Cazeaux",,45.248089,-0.879185,"",,1,,,2,,
"MOBIITI:StopPlace:71624",,"Reden",,44.998276,-0.401928,"",,1,,,2,,
"MOBIITI:StopPlace:70777",,"Mouralet",,45.128674,-0.789671,"",,1,,,2,,
"MOBIITI:StopPlace:70774",,"La Caussade",,45.238796,-0.875924,"",,1,,,2,,
"MOBIITI:StopPlace:71622",,"Paradis",,45.002716,-0.411451,"",,1,,,2,,
"MOBIITI:StopPlace:71621",,"Ecoles d'Aubie",,45.019295,-0.404834,"",,1,,,2,,
"MOBIITI:StopPlace:70775",,"Rue des Primeveres",,45.260891,-0.836852,"",,1,,,2,,
"MOBIITI:StopPlace:69769",,"Bourg",,44.879547,-0.096066,"",,1,,,2,,
"MOBIITI:StopPlace:70778",,"Le Puy",,45.159576,-0.815641,"",,1,,,2,,
"MOBIITI:StopPlace:70779",,"La Pinede",,45.141567,-0.810291,"",,1,,,2,,
"MOBIITI:StopPlace:69761",,"Imp des Sarments",,44.975800,-0.412301,"",,1,,,2,,
"MOBIITI:StopPlace:69762",,"La Virvee",,44.993179,-0.401201,"",,1,,,2,,
"MOBIITI:StopPlace:69763",,"Cabarieu",,44.985443,-0.407014,"",,1,,,2,,
"MOBIITI:StopPlace:69764",,"Fontmuree",,44.952969,-0.129347,"",,1,,,2,,
"MOBIITI:StopPlace:69765",,"Catusseau",,44.923466,-0.207964,"",,1,,,2,,
"MOBIITI:StopPlace:69766",,"La Croix de St Andre",,44.939911,-0.178763,"",,1,,,2,,
"MOBIITI:StopPlace:69767",,"Bertineau",,44.948521,-0.158000,"",,1,,,2,,
"MOBIITI:StopPlace:69768",,"Bourg",,44.875443,-0.132434,"",,1,,,2,,
"MOBIITI:StopPlace:70780",,"La Chatole",,45.165943,-0.810373,"",,1,,,2,,
"MOBIITI:StopPlace:69760",,"Terrefort",,44.989605,-0.456669,"",,1,,,2,,
"MOBIITI:StopPlace:70783",,"Garric",,45.133198,-0.853773,"",,1,,,2,,
"MOBIITI:StopPlace:70300",,"La Lagune du Merle",,44.672318,-0.730245,"",,1,,,2,,
"MOBIITI:StopPlace:70784",,"Bourg",,45.248684,-0.835968,"",,1,,,2,,
"MOBIITI:StopPlace:70781",,"Rue des Mesanges",,45.546844,-1.059825,"",,1,,,2,,
"MOBIITI:StopPlace:70782",,"Lugagnac",,45.250553,-0.853014,"",,1,,,2,,
"MOBIITI:StopPlace:70787",,"Eglise",,45.041111,-0.937354,"",,1,,,2,,
"MOBIITI:StopPlace:70303",,"Le Barbareau",,44.630173,-0.755668,"",,1,,,2,,
"MOBIITI:StopPlace:70788",,"Chat. Corconnac",,45.126205,-0.806891,"",,1,,,2,,
"MOBIITI:StopPlace:70304",,"Le Champ Neuf 2",,44.588337,-0.739049,"",,1,,,2,,
"MOBIITI:StopPlace:70301",,"St Jacques",,44.666733,-0.733593,"",,1,,,2,,
"MOBIITI:StopPlace:70785",,"Lalande",,45.109745,-0.752082,"",,1,,,2,,
"MOBIITI:StopPlace:70786",,"Bourg",,45.112247,-0.730398,"",,1,,,2,,
"MOBIITI:StopPlace:70302",,"Le Garde",,44.610001,-0.767862,"",,1,,,2,,
"MOBIITI:StopPlace:70747",,"Le Pouyalet",,45.214989,-0.764630,"",,1,,,2,,
"MOBIITI:StopPlace:70748",,"St Lambert",,45.179264,-0.752040,"",,1,,,2,,
"MOBIITI:StopPlace:69319",,"La Massonne",,45.032166,-0.306499,"",,1,,,2,,
"MOBIITI:StopPlace:70745",,"Padarnac",,45.210617,-0.760086,"",,1,,,2,,
"MOBIITI:StopPlace:70746",,"Mousset",,45.222969,-0.764742,"",,1,,,2,,
"MOBIITI:StopPlace:70749",,"Dauprat",,45.184170,-0.752593,"",,1,,,2,,
"MOBIITI:StopPlace:46675",,"Château Dillon","",44.919270,-0.634777,"BORDEAUX_METROPOLE:TariffZone:33056",,1,,,0,,
"MOBIITI:StopPlace:69310",,"Monsieur Dubois",,45.034458,-0.342376,"",,1,,,2,,
"MOBIITI:StopPlace:69794",,"Bregnet",,44.853413,-0.180617,"",,1,,,2,,
"MOBIITI:StopPlace:69795",,"La Poste",,44.828732,-0.185287,"",,1,,,2,,
"MOBIITI:StopPlace:69796",,"Bourg",,44.829170,-0.187262,"",,1,,,2,,
"MOBIITI:StopPlace:69313",,"Monument Sidi Brahim",,45.018890,-0.314225,"",,1,,,2,,
"MOBIITI:StopPlace:69797",,"Cimetiere",,44.874016,-0.190441,"",,1,,,2,,
"MOBIITI:StopPlace:69314",,"La Pradelle",,45.021027,-0.309717,"",,1,,,2,,
"MOBIITI:StopPlace:69315",,"Loiseau",,44.919121,-0.248127,"",,1,,,2,,
"MOBIITI:StopPlace:69799",,"Bourg",,44.813648,-0.139736,"",,1,,,2,,
"MOBIITI:StopPlace:69791",,"J. Marie",,44.890507,-0.204978,"",,1,,,2,,
"MOBIITI:StopPlace:69792",,"Ferrandat",,44.868153,-0.144701,"",,1,,,2,,
"MOBIITI:StopPlace:69793",,"Laglaye",,44.855316,-0.099920,"",,1,,,2,,
"MOBIITI:StopPlace:70750",,"Cadourne",,45.303303,-0.787974,"",,1,,,2,,
"MOBIITI:StopPlace:70751",,"Les Ecoles",,45.289211,-0.790887,"",,1,,,2,,
"MOBIITI:StopPlace:71602",,"Allee des Oiseaux",,44.878387,-0.418345,"",,1,,,2,,
"MOBIITI:StopPlace:70754",,"Artigues",,45.192379,-0.776119,"",,1,,,2,,
"MOBIITI:StopPlace:70755",,"Grand Puy",,45.191429,-0.770195,"",,1,,,2,,
"MOBIITI:StopPlace:70752",,"Le Trale",,45.282410,-0.803548,"",,1,,,2,,
"MOBIITI:StopPlace:69307",,"Perron",,44.941559,-0.269680,"",,1,,,2,,
"MOBIITI:StopPlace:70758",,"St Trelody",,45.303261,-0.924469,"",,1,,,2,,
"MOBIITI:StopPlace:71606",,"Rue des Chenes",,44.879818,-0.413546,"",,1,,,2,,
"MOBIITI:StopPlace:69308",,"Bourg",,45.024235,-0.356776,"",,1,,,2,,
"MOBIITI:StopPlace:70759",,"Benaben",,45.297150,-0.927625,"",,1,,,2,,
"MOBIITI:StopPlace:70756",,"Cite Scolaire",,45.193615,-0.749123,"",,1,,,2,,
"MOBIITI:StopPlace:69309",,"Andreau",,45.034908,-0.353671,"",,1,,,2,,
"MOBIITI:StopPlace:71609",,"Buffaud",,45.010674,-0.401566,"",,1,,,2,,
"MOBIITI:StopPlace:71608",,"Cave Cooperative",,45.015236,-0.394418,"",,1,,,2,,
"MOBIITI:StopPlace:69783",,"Gory",,44.855026,-0.085960,"",,1,,,2,,
"MOBIITI:StopPlace:69300",,"Grimard",,45.013042,-0.291978,"",,1,,,2,,
"MOBIITI:StopPlace:69784",,"Les Demoiselles",,44.854767,-0.072854,"",,1,,,2,,
"MOBIITI:StopPlace:69301",,"Bafave",,45.046600,-0.318966,"",,1,,,2,,
"MOBIITI:StopPlace:69785",,"Le Paradis",,44.854343,-0.050642,"",,1,,,2,,
"MOBIITI:StopPlace:69786",,"Bourg",,44.853752,-0.042964,"",,1,,,2,,
"MOBIITI:StopPlace:69303",,"Bos Gramont",,44.957561,-0.352064,"",,1,,,2,,
"MOBIITI:StopPlace:69787",,"Ecole Primaire",,44.877064,-0.190418,"",,1,,,2,,
"MOBIITI:StopPlace:69788",,"Mezieres",,44.854534,-0.062518,"",,1,,,2,,
"MOBIITI:StopPlace:69305",,"Les Champs de Beaumont",,44.983162,-0.254228,"",,1,,,2,,
"MOBIITI:StopPlace:69789",,"Centre Commercial",,44.901134,-0.217304,"",,1,,,2,,
"MOBIITI:StopPlace:69306",,"Capet",,44.946667,-0.274086,"",,1,,,2,,
"MOBIITI:StopPlace:69780",,"Petit Bigaroux",,44.876034,-0.172161,"",,1,,,2,,
"MOBIITI:StopPlace:69781",,"Bourg",,44.855579,-0.113054,"",,1,,,2,,
"MOBIITI:StopPlace:69782",,"Petit Bouquey",,44.860344,-0.128905,"",,1,,,2,,
"MOBIITI:StopPlace:70761",,"L'Horthe",,45.151417,-0.813492,"",,1,,,2,,
"MOBIITI:StopPlace:70762",,"Gare TER",,45.155846,-0.785397,"",,1,,,2,,
"MOBIITI:StopPlace:70760",,"Primat",,45.038960,-0.744232,"",,1,,,2,,
"MOBIITI:StopPlace:70765",,"Saussac",,45.132816,-0.815217,"",,1,,,2,,
"MOBIITI:StopPlace:71613",,"Les Nauves",,45.044125,-0.354688,"",,1,,,2,,
"MOBIITI:StopPlace:70766",,"Hameau des Pins",,45.143158,-0.820089,"",,1,,,2,,
"MOBIITI:StopPlace:71612",,"Rolle","",45.040901,-0.357268,"",,1,,,2,,
"MOBIITI:StopPlace:70763",,"La Grave",,45.129818,-0.858171,"",,1,,,2,,
"MOBIITI:StopPlace:70764",,"La Bergerie",,45.159763,-0.796456,"",,1,,,2,,
"MOBIITI:StopPlace:70327",,"La Vignolle",,44.573883,-0.779647,"",,1,,,2,,
"MOBIITI:StopPlace:71659",,"Hôpital Robert Boulin","",44.920017,-0.230239,"",,1,,,2,,
"MOBIITI:StopPlace:71658",,"La Gare",,45.022778,-0.300402,"",,1,,,2,,
"MOBIITI:StopPlace:69332",,"Eymon",,44.971420,-0.321737,"",,1,,,2,,
"MOBIITI:StopPlace:69333",,"Mairie",,44.958752,-0.277681,"",,1,,,2,,
"MOBIITI:StopPlace:69334",,"Marot",,44.976551,-0.326293,"",,1,,,2,,
"MOBIITI:StopPlace:69335",,"Eglise",,44.978455,-0.381451,"",,1,,,2,,
"MOBIITI:StopPlace:69336",,"Le Puy",,44.987324,-0.382094,"",,1,,,2,,
"MOBIITI:StopPlace:69337",,"Les Teychères",,44.994614,-0.362913,"",,1,,,2,,
"MOBIITI:StopPlace:69338",,"Salle des fêtes",,44.981758,-0.378038,"",,1,,,2,,
"MOBIITI:StopPlace:46692",,"Collège Lapierre",,44.873940,-0.524359,"BORDEAUX_METROPOLE:TariffZone:33249",,1,,,0,,
"MOBIITI:StopPlace:69330",,"Le Basque",,44.964600,-0.306982,"",,1,,,2,,
"MOBIITI:StopPlace:69331",,"Canet",,44.957817,-0.306641,"",,1,,,2,,
"MOBIITI:StopPlace:70332",,"Rejouit","",44.738632,-0.656000,"",,1,,,2,,
"MOBIITI:StopPlace:71664",,"Beaucourt",,45.029278,-0.384094,"",,1,,,2,,
"MOBIITI:StopPlace:70333",,"Rue Rouches",,44.766479,-0.449774,"",,1,,,2,,
"MOBIITI:StopPlace:70331",,"Douence",,44.574043,-0.631810,"",,1,,,2,,
"MOBIITI:StopPlace:70336",,"Les Jardins de Thomas",,44.745224,-0.456415,"",,1,,,2,,
"MOBIITI:StopPlace:71668",,"Bourg",,45.057407,-0.335627,"",,1,,,2,,
"MOBIITI:StopPlace:70337",,"Baragne 2",,44.747383,-0.456518,"",,1,,,2,,
"MOBIITI:StopPlace:71667",,"Colas Brard",,45.045731,-0.369995,"",,1,,,2,,
"MOBIITI:StopPlace:70334",,"Cimetiere",,44.764618,-0.482322,"",,1,,,2,,
"MOBIITI:StopPlace:71666",,"Crabit",,45.008011,-0.369019,"",,1,,,2,,
"MOBIITI:StopPlace:70335",,"Montichamp",,44.769554,-0.477750,"",,1,,,2,,
"MOBIITI:StopPlace:71665",,"Lot. Duplesis",,45.014618,-0.378771,"",,1,,,2,,
"MOBIITI:StopPlace:69329",,"Vincenot",,44.985153,-0.396304,"",,1,,,2,,
"MOBIITI:StopPlace:70339",,"Gros Chenes",,44.795868,-0.483018,"",,1,,,2,,
"MOBIITI:StopPlace:71669",,"Collège",,45.068970,-0.375359,"",,1,,,2,,
"MOBIITI:StopPlace:69322",,"Perey",,44.970219,-0.318308,"",,1,,,2,,
"MOBIITI:StopPlace:69323",,"Roque de Bas",,44.946678,-0.326488,"",,1,,,2,,
"MOBIITI:StopPlace:69324",,"Bourg",,44.950974,-0.333784,"",,1,,,2,,
"MOBIITI:StopPlace:69325",,"Vincent",,44.946388,-0.289223,"",,1,,,2,,
"MOBIITI:StopPlace:69326",,"Boisset",,44.989044,-0.388924,"",,1,,,2,,
"MOBIITI:StopPlace:69328",,"Biquet",,44.990967,-0.369829,"",,1,,,2,,
"MOBIITI:StopPlace:71671",,"Fouquet",,45.084591,-0.459189,"",,1,,,2,,
"MOBIITI:StopPlace:71670",,"Sabourin La Lande",,45.084949,-0.450818,"",,1,,,2,,
"MOBIITI:StopPlace:70343",,"Le Basque",,44.790440,-0.432893,"",,1,,,2,,
"MOBIITI:StopPlace:71675",,"Maison Neuve","",45.038399,-0.367673,"",,1,,,2,,
"MOBIITI:StopPlace:70344",,"La Lande",,44.783974,-0.436761,"",,1,,,2,,
"MOBIITI:StopPlace:71674",,"Bourg",,45.016590,-0.380364,"",,1,,,2,,
"MOBIITI:StopPlace:70341",,"Censot 2",,44.762398,-0.413897,"",,1,,,2,,
"MOBIITI:StopPlace:71673",,"Vincent",,45.088703,-0.437641,"",,1,,,2,,
"MOBIITI:StopPlace:70342",,"La Mouline",,44.799747,-0.432221,"",,1,,,2,,
"MOBIITI:StopPlace:71672",,"Methee",,45.087906,-0.441739,"",,1,,,2,,
"MOBIITI:StopPlace:70347",,"Lotte",,44.764557,-0.478041,"",,1,,,2,,
"MOBIITI:StopPlace:70345",,"Dom. la Vernaie",,44.762615,-0.466765,"",,1,,,2,,
"MOBIITI:StopPlace:70346",,"Paguemaou",,44.772625,-0.471807,"",,1,,,2,,
"MOBIITI:StopPlace:70307",,"Quartier Lauray",,44.527191,-0.811644,"",,1,,,2,,
"MOBIITI:StopPlace:70308",,"Lac Vert",,44.742752,-0.649610,"",,1,,,2,,
"MOBIITI:StopPlace:71638",,"Rochereau",,45.001652,-0.413745,"",,1,,,2,,
"MOBIITI:StopPlace:70789",,"Cite",,45.105946,-0.733184,"",,1,,,2,,
"MOBIITI:StopPlace:70305",,"Av. Compostelle no235",,44.701939,-0.704740,"",,1,,,2,,
"MOBIITI:StopPlace:71637",,"Michelle",,45.038013,-0.373535,"",,1,,,2,,
"MOBIITI:StopPlace:70306",,"Chantier",,44.593395,-0.729048,"",,1,,,2,,
"MOBIITI:StopPlace:70309",,"Beliet",,44.508621,-0.788315,"",,1,,,2,,
"MOBIITI:StopPlace:69354",,"Noliquet","",45.003666,-0.512558,"BORDEAUX_METROPOLE:TariffZone:33004",,1,,,2,,
"MOBIITI:StopPlace:69355",,"Bourg",,45.015545,-0.533041,"BORDEAUX_METROPOLE:TariffZone:33004",,1,,,2,,
